county_id,county_id2,county,state,state_abb,num_licensed_beds,num_staffed_beds,num_icu_beds,adult_icu_beds,pedi_icu_beds,bed_utilization,extra_beds,avg_vent_usage,num_hospitals,population,Latitude,Longitude,cases,deaths,dc_ratio
0500000US01001,1001.0,Autauga,Alabama,AL,85.0,55.0,6.0,6.0,0.0,0.6231133000000001,30.0,2.0,1.0,55601.0,32.532237,-86.64644,32,2,0.0625
0500000US01003,1003.0,Baldwin,Alabama,AL,386.0,362.0,51.0,51.0,0.0,0.563698575,24.0,8.0,4.0,218022.0,30.659218,-87.74606700000002,132,3,0.022727272727272728
0500000US01005,1005.0,Barbour,Alabama,AL,74.0,30.0,5.0,5.0,0.0,0.4306397,44.0,2.0,1.0,24881.0,31.870253,-85.40510400000002,29,0,0.0
0500000US01007,1007.0,Bibb,Alabama,AL,35.0,25.0,4.0,4.0,0.0,0.3762192,10.0,1.0,1.0,22400.0,33.015893,-87.12714799999998,34,0,0.0
0500000US01009,1009.0,Blount,Alabama,AL,25.0,25.0,6.0,6.0,0.0,0.4990685,0.0,2.0,1.0,57840.0,33.977358,-86.56644,29,0,0.0
0500000US01011,1011.0,Bullock,Alabama,AL,61.0,30.0,5.0,5.0,0.0,0.21287670000000009,31.0,1.0,1.0,10138.0,32.101759,-85.717261,11,0,0.0
0500000US01013,1013.0,Butler,Alabama,AL,72.0,44.0,7.0,7.0,0.0,0.1832514,28.0,2.0,1.0,19680.0,31.751667,-86.681969,17,0,0.0
0500000US01015,1015.0,Calhoun,Alabama,AL,486.0,413.0,30.0,30.0,0.0,0.44826723333333335,73.0,15.0,3.0,114277.0,33.770516,-85.82790899999998,85,3,0.03529411764705882
0500000US01017,1017.0,Chambers,Alabama,AL,115.0,0.0,15.0,15.0,0.0,0.0,115.0,0.0,1.0,33615.0,32.915504,-85.394032,270,16,0.05925925925925926
0500000US01019,1019.0,Cherokee,Alabama,AL,60.0,45.0,8.0,8.0,0.0,0.2425316,15.0,1.0,1.0,26032.0,34.069515,-85.65424200000002,13,0,0.0
0500000US01021,1021.0,Chilton,Alabama,AL,30.0,26.0,6.0,6.0,0.0,0.2854584,4.0,2.0,1.0,44153.0,32.854051,-86.726607,46,1,0.021739130434782608
0500000US01023,1023.0,Choctaw,Alabama,AL,25.0,25.0,4.0,4.0,0.0,0.2347397,0.0,0.0,1.0,12841.0,31.990954,-88.248889,21,0,0.0
0500000US01025,1025.0,Clarke,Alabama,AL,85.0,56.0,10.0,10.0,0.0,0.2897847,29.0,2.0,2.0,23920.0,31.685521,-87.818624,25,1,0.04
0500000US01027,1027.0,Clay,Alabama,AL,45.0,46.0,4.0,4.0,0.0,0.2911257,-1.0,2.0,1.0,13275.0,33.2704,-85.863525,19,0,0.0
0500000US01031,1031.0,Coffee,Alabama,AL,131.0,99.0,7.0,7.0,0.0,0.2380518,32.0,2.0,1.0,51909.0,31.402258000000003,-85.989602,73,1,0.0136986301369863
0500000US01033,1033.0,Colbert,Alabama,AL,383.0,300.0,22.0,22.0,0.0,0.25880195,83.0,6.0,2.0,54762.0,34.703112,-87.801457,20,1,0.05
0500000US01035,1035.0,Conecuh,Alabama,AL,58.0,44.0,8.0,8.0,0.0,0.2938356,14.0,0.0,1.0,12277.0,31.430926,-86.988722,10,0,0.0
0500000US01039,1039.0,Covington,Alabama,AL,187.0,128.0,13.0,13.0,0.0,0.30600684999999994,59.0,4.0,2.0,36986.0,31.243987,-86.44872099999998,27,1,0.037037037037037035
0500000US01041,1041.0,Crenshaw,Alabama,AL,93.0,57.0,5.0,5.0,0.0,0.06301369999999999,36.0,2.0,2.0,13824.0,31.732826,-86.319222,6,0,0.0
0500000US01043,1043.0,Cullman,Alabama,AL,185.0,185.0,12.0,12.0,0.0,0.49025035,0.0,5.0,2.0,83442.0,34.131923,-86.86926700000002,53,1,0.018867924528301886
0500000US01045,1045.0,Dale,Alabama,AL,89.0,77.0,6.0,6.0,0.0,0.2882405,12.0,2.0,1.0,48956.0,31.430654,-85.609476,22,0,0.0
0500000US01047,1047.0,Dallas,Alabama,AL,175.0,109.0,23.0,23.0,0.0,0.4045997,66.0,2.0,1.0,38310.0,32.33354,-87.114356,30,2,0.06666666666666667
0500000US01049,1049.0,DeKalb,Alabama,AL,134.0,97.0,12.0,12.0,0.0,0.2922186,37.0,3.0,1.0,71385.0,34.460929,-85.80399200000002,58,2,0.034482758620689655
0500000US01051,1051.0,Elmore,Alabama,AL,138.0,70.0,11.0,11.0,0.0,0.33092009999999994,68.0,3.0,2.0,81887.0,32.597229,-86.142735,74,1,0.013513513513513514
0500000US01053,1053.0,Escambia,Alabama,AL,142.0,95.0,14.0,14.0,0.0,0.32409904999999994,47.0,4.0,2.0,36748.0,31.122287,-87.16841,18,1,0.05555555555555555
0500000US01055,1055.0,Etowah,Alabama,AL,739.0,590.0,85.0,85.0,0.0,0.552447475,149.0,14.0,4.0,102501.0,34.047641,-86.034263,116,8,0.06896551724137931
0500000US01057,1057.0,Fayette,Alabama,AL,61.0,45.0,8.0,8.0,0.0,0.261309,16.0,2.0,1.0,16433.0,33.716157,-87.764292,4,0,0.0
0500000US01059,1059.0,Franklin,Alabama,AL,125.0,74.0,11.0,11.0,0.0,0.35370419999999997,51.0,3.0,2.0,31363.0,34.441989,-87.842814,22,1,0.045454545454545456
0500000US01061,1061.0,Geneva,Alabama,AL,83.0,73.0,6.0,6.0,0.0,0.1658473,10.0,2.0,1.0,26314.0,31.092382,-85.821022,5,0,0.0
0500000US01063,1063.0,Greene,Alabama,AL,20.0,20.0,4.0,4.0,0.0,0.06753425,0.0,0.0,1.0,8233.0,32.844497,-87.9642,40,0,0.0
0500000US01065,1065.0,Hale,Alabama,AL,39.0,28.0,5.0,5.0,0.0,0.25616439999999996,11.0,0.0,1.0,14726.0,32.752796000000004,-87.62306099999998,36,1,0.027777777777777776
0500000US01069,1069.0,Houston,Alabama,AL,790.0,769.0,72.0,72.0,22.0,0.5830053000000001,21.0,18.0,5.0,104722.0,31.158183,-85.29641099999998,75,3,0.04
0500000US01071,1071.0,Jackson,Alabama,AL,170.0,92.0,10.0,10.0,0.0,0.15247879999999994,78.0,2.0,1.0,51736.0,34.764114,-85.980056,42,2,0.047619047619047616
0500000US01073,1073.0,Jefferson,Alabama,AL,4768.0,3779.0,393.0,393.0,264.0,0.5437121853333333,989.0,92.0,15.0,659300.0,33.553444,-86.896536,744,31,0.041666666666666664
0500000US01077,1077.0,Lauderdale,Alabama,AL,263.0,233.0,36.0,36.0,0.0,0.5574446,30.0,6.0,1.0,92387.0,34.904121999999994,-87.650997,25,4,0.16
0500000US01079,1079.0,Lawrence,Alabama,AL,98.0,43.0,6.0,6.0,0.0,0.1673144,55.0,2.0,1.0,32957.0,34.529776,-87.321865,12,0,0.0
0500000US01081,1081.0,Lee,Alabama,AL,314.0,372.0,20.0,20.0,0.0,0.5257254,-58.0,10.0,1.0,163941.0,32.604064,-85.353048,331,21,0.0634441087613293
0500000US01083,1083.0,Limestone,Alabama,AL,102.0,97.0,18.0,18.0,0.0,0.48555215,5.0,6.0,2.0,96174.0,34.810239,-86.981399,40,0,0.0
0500000US01087,1087.0,Macon,Alabama,AL,143.0,143.0,0.0,0.0,0.0,0.0,0.0,0.0,1.0,18439.0,32.387027,-85.692887,27,2,0.07407407407407407
0500000US01089,1089.0,Madison,Alabama,AL,1241.0,1240.0,99.0,99.0,49.0,0.5320358000000001,1.0,24.0,5.0,366519.0,34.764238,-86.55108,216,4,0.018518518518518517
0500000US01091,1091.0,Marengo,Alabama,AL,99.0,37.0,5.0,5.0,0.0,0.44524250000000004,62.0,2.0,1.0,19066.0,32.247591,-87.79109100000002,40,3,0.075
0500000US01093,1093.0,Marion,Alabama,AL,120.0,97.0,8.0,8.0,0.0,0.22459575,23.0,3.0,2.0,29763.0,34.138219,-87.881551,65,5,0.07692307692307693
0500000US01095,1095.0,Marshall,Alabama,AL,150.0,150.0,20.0,20.0,0.0,0.4818695,0.0,7.0,1.0,96109.0,34.309564,-86.321668,241,5,0.02074688796680498
0500000US01097,1097.0,Mobile,Alabama,AL,1930.0,1490.0,246.0,246.0,118.0,0.6425052571428572,440.0,31.0,7.0,413757.0,30.684572,-88.196568,759,39,0.05138339920948617
0500000US01099,1099.0,Monroe,Alabama,AL,94.0,49.0,8.0,8.0,0.0,0.17769079999999998,45.0,2.0,1.0,21067.0,31.580332,-87.383266,9,1,0.1111111111111111
0500000US01101,1101.0,Montgomery,Alabama,AL,1204.0,1018.0,86.0,86.0,65.0,0.5360293,186.0,20.0,6.0,225763.0,32.202881,-86.204461,253,5,0.019762845849802372
0500000US01103,1103.0,Morgan,Alabama,AL,273.0,200.0,23.0,23.0,0.0,0.5538356,73.0,3.0,1.0,119089.0,34.454484,-86.846402,51,0,0.0
0500000US01109,1109.0,Pike,Alabama,AL,97.0,97.0,9.0,9.0,0.0,0.1839571,0.0,2.0,1.0,33338.0,31.798651,-85.941604,53,0,0.0
0500000US01111,1111.0,Randolph,Alabama,AL,15.0,15.0,3.0,3.0,0.0,0.22389210000000004,0.0,1.0,1.0,22725.0,33.296475,-85.46406800000003,60,4,0.06666666666666667
0500000US01113,1113.0,Russell,Alabama,AL,128.0,105.0,10.0,10.0,0.0,0.67220525,23.0,4.0,2.0,57781.0,32.289811,-85.18698,52,0,0.0
0500000US01115,1115.0,St. Clair,Alabama,AL,40.0,40.0,6.0,6.0,0.0,0.5863699,0.0,2.0,1.0,88690.0,33.712963,-86.315663,62,0,0.0
0500000US01117,1117.0,Shelby,Alabama,AL,286.0,246.0,32.0,32.0,0.0,0.57787225,40.0,6.0,2.0,215707.0,33.263043,-86.678089,278,8,0.02877697841726619
0500000US01119,1119.0,Sumter,Alabama,AL,33.0,33.0,6.0,6.0,0.0,0.45330010000000004,0.0,0.0,1.0,12691.0,32.597481,-88.200057,46,1,0.021739130434782608
0500000US01121,1121.0,Talladega,Alabama,AL,290.0,207.0,14.0,14.0,0.0,0.24909295,83.0,4.0,2.0,79828.0,33.369314,-86.17593000000002,52,2,0.038461538461538464
0500000US01123,1123.0,Tallapoosa,Alabama,AL,127.0,80.0,14.0,14.0,0.0,0.27772891,47.0,2.0,2.0,40497.0,32.863308,-85.79961800000002,242,16,0.06611570247933884
0500000US01125,1125.0,Tuscaloosa,Alabama,AL,1003.0,777.0,57.0,57.0,51.0,0.51390865,226.0,33.0,6.0,208911.0,33.29022,-87.52278299999998,165,1,0.006060606060606061
0500000US01127,1127.0,Walker,Alabama,AL,267.0,207.0,12.0,12.0,0.0,0.2874859,60.0,4.0,1.0,63711.0,33.791558,-87.30109399999998,91,0,0.0
0500000US01129,1129.0,Washington,Alabama,AL,25.0,15.0,3.0,3.0,0.0,0.3959817,10.0,1.0,1.0,16378.0,31.405217,-88.197564,18,1,0.05555555555555555
0500000US01131,1131.0,Wilcox,Alabama,AL,30.0,21.0,4.0,4.0,0.0,0.07123288,9.0,0.0,1.0,10627.0,31.990082,-87.304935,50,1,0.02
0500000US01133,1133.0,Winston,Alabama,AL,49.0,49.0,4.0,4.0,0.0,0.2830305,0.0,2.0,1.0,23660.0,34.154566,-87.365346,10,0,0.0
0500000US04001,4001.0,Apache,Arizona,AZ,162.0,162.0,29.0,29.0,0.0,0.282450825,0.0,5.0,4.0,71818.0,35.385084,-109.490172,235,5,0.02127659574468085
0500000US04003,4003.0,Cochise,Arizona,AZ,160.0,135.0,22.0,22.0,0.0,0.26197759499999995,25.0,6.0,4.0,126770.0,31.840129,-109.775163,31,0,0.0
0500000US04005,4005.0,Coconino,Arizona,AZ,418.0,396.0,61.0,61.0,18.0,0.4338049199999999,22.0,12.0,5.0,142854.0,35.829692,-111.773728,353,35,0.09915014164305949
0500000US04007,4007.0,Gila,Arizona,AZ,50.0,50.0,8.0,8.0,0.0,0.47632335,0.0,4.0,2.0,53889.0,33.789618,-110.81187,10,0,0.0
0500000US04009,4009.0,Graham,Arizona,AZ,176.0,57.0,10.0,10.0,0.0,0.3044276,119.0,2.0,2.0,38072.0,32.931828,-109.87831,4,0,0.0
0500000US04012,4012.0,La Paz,Arizona,AZ,42.0,42.0,6.0,6.0,0.0,0.2637123,0.0,2.0,2.0,21098.0,33.72761,-114.038806,6,1,0.16666666666666666
0500000US04013,4013.0,Maricopa,Arizona,AZ,11544.0,9775.0,1137.0,1137.0,335.0,0.4940821640625,1769.0,281.0,64.0,4410824.0,33.345176,-112.49893,2846,97,0.03408292340126493
0500000US04015,4015.0,Mohave,Arizona,AZ,610.0,551.0,80.0,80.0,0.0,0.4046625,59.0,20.0,4.0,209550.0,35.717705,-113.749689,62,3,0.04838709677419355
0500000US04017,4017.0,Navajo,Arizona,AZ,188.0,176.0,24.0,24.0,0.0,0.37371096,12.0,5.0,5.0,110445.0,35.390785,-110.321025,527,12,0.022770398481973434
0500000US04019,4019.0,Pima,Arizona,AZ,3367.0,2860.0,377.0,377.0,159.0,0.4291761200000001,507.0,59.0,20.0,1039073.0,32.128043,-111.783657,973,68,0.0698869475847893
0500000US04021,4021.0,Pinal,Arizona,AZ,306.0,401.0,39.0,39.0,0.0,0.23259423,-95.0,10.0,6.0,447138.0,32.918521000000005,-111.36634,283,8,0.028268551236749116
0500000US04023,4023.0,Santa Cruz,Arizona,AZ,25.0,25.0,4.0,4.0,0.0,0.26597259999999995,0.0,2.0,1.0,46511.0,31.525733,-110.845228,28,0,0.0
0500000US04025,4025.0,Yavapai,Arizona,AZ,385.0,302.0,43.0,43.0,0.0,0.5183429199999999,83.0,12.0,5.0,231993.0,34.631071,-112.577225,73,1,0.0136986301369863
0500000US04027,4027.0,Yuma,Arizona,AZ,456.0,447.0,42.0,42.0,20.0,0.58551855,9.0,7.0,2.0,212128.0,32.773942,-113.910905,28,1,0.03571428571428571
0500000US05001,5001.0,Arkansas,Arkansas,AR,74.0,74.0,13.0,13.0,0.0,0.13983225,0.0,3.0,2.0,17769.0,34.28957,-91.376547,2,0,0.0
0500000US05003,5003.0,Ashley,Arkansas,AR,33.0,25.0,6.0,6.0,0.0,0.3846575,8.0,2.0,1.0,20046.0,33.190835,-91.772267,13,0,0.0
0500000US05005,5005.0,Baxter,Arkansas,AR,268.0,170.0,17.0,17.0,0.0,0.514519,98.0,4.0,1.0,41619.0,36.280268,-92.329949,5,0,0.0
0500000US05007,5007.0,Benton,Arkansas,AR,342.0,311.0,34.0,34.0,8.0,0.39892340000000004,31.0,7.0,4.0,272608.0,36.337819,-94.256298,69,0,0.0
0500000US05009,5009.0,Boone,Arkansas,AR,174.0,120.0,24.0,24.0,0.0,0.1958676,54.0,3.0,1.0,37480.0,36.304299,-93.079236,4,0,0.0
0500000US05011,5011.0,Bradley,Arkansas,AR,33.0,25.0,4.0,4.0,0.0,0.2476712,8.0,2.0,1.0,10897.0,33.466549,-92.169156,7,1,0.14285714285714285
0500000US05015,5015.0,Carroll,Arkansas,AR,40.0,40.0,8.0,8.0,0.0,0.239379,0.0,4.0,2.0,28223.0,36.33737,-93.540972,2,0,0.0
0500000US05017,5017.0,Chicot,Arkansas,AR,35.0,35.0,4.0,4.0,0.0,0.460888,0.0,2.0,2.0,10438.0,33.267139,-91.297158,7,0,0.0
0500000US05019,5019.0,Clark,Arkansas,AR,25.0,25.0,4.0,4.0,0.0,0.43671229999999994,0.0,2.0,1.0,22061.0,34.053315999999995,-93.176208,27,0,0.0
0500000US05021,5021.0,Clay,Arkansas,AR,25.0,25.0,4.0,4.0,0.0,0.49654790000000004,0.0,1.0,1.0,14847.0,36.367302,-90.418704,1,0,0.0
0500000US05023,5023.0,Cleburne,Arkansas,AR,25.0,25.0,4.0,4.0,0.0,0.3597808,0.0,1.0,1.0,24965.0,35.566315,-92.05995,71,4,0.056338028169014086
0500000US05027,5027.0,Columbia,Arkansas,AR,49.0,30.0,6.0,6.0,0.0,0.3742466,19.0,2.0,1.0,23537.0,33.223038,-93.232843,5,0,0.0
0500000US05029,5029.0,Conway,Arkansas,AR,25.0,25.0,4.0,4.0,0.0,0.3151781,0.0,2.0,1.0,20891.0,35.26570200000001,-92.689248,7,1,0.14285714285714285
0500000US05031,5031.0,Craighead,Arkansas,AR,730.0,553.0,74.0,74.0,12.0,0.552568875,177.0,17.0,4.0,108558.0,35.827729,-90.631421,49,1,0.02040816326530612
0500000US05033,5033.0,Crawford,Arkansas,AR,103.0,35.0,8.0,8.0,0.0,0.2819549000000001,68.0,2.0,1.0,63406.0,35.583011,-94.236219,4,0,0.0
0500000US05035,5035.0,Crittenden,Arkansas,AR,65.0,63.0,2.0,2.0,0.0,0.14612750000000002,2.0,1.0,2.0,48342.0,35.211879,-90.315332,147,5,0.034013605442176874
0500000US05037,5037.0,Cross,Arkansas,AR,25.0,15.0,3.0,3.0,0.0,0.5808219,10.0,2.0,1.0,16676.0,35.285692,-90.763984,9,0,0.0
0500000US05039,5039.0,Dallas,Arkansas,AR,25.0,22.0,4.0,4.0,0.0,0.08941469,3.0,0.0,1.0,7182.0,33.967823,-92.653999,1,0,0.0
0500000US05041,5041.0,Desha,Arkansas,AR,50.0,50.0,8.0,8.0,0.0,0.2570411,0.0,2.0,2.0,11512.0,33.828752,-91.244103,9,0,0.0
0500000US05043,5043.0,Drew,Arkansas,AR,49.0,49.0,5.0,5.0,0.0,0.4040257,0.0,2.0,1.0,18328.0,33.587242,-91.722778,8,1,0.125
0500000US05045,5045.0,Faulkner,Arkansas,AR,357.0,355.0,25.0,25.0,0.0,0.4676870750000001,2.0,6.0,4.0,124806.0,35.146548,-92.336928,65,2,0.03076923076923077
0500000US05047,5047.0,Franklin,Arkansas,AR,25.0,25.0,4.0,4.0,0.0,0.1079452,0.0,1.0,1.0,17810.0,35.508558,-93.887665,2,0,0.0
0500000US05051,5051.0,Garland,Arkansas,AR,562.0,423.0,48.0,48.0,0.0,0.48772430520000004,139.0,16.0,5.0,99154.0,34.578852000000005,-93.146932,109,0,0.0
0500000US05055,5055.0,Greene,Arkansas,AR,129.0,114.0,8.0,8.0,0.0,0.2851478,15.0,3.0,1.0,45325.0,36.120607,-90.566346,13,0,0.0
0500000US05057,5057.0,Hempstead,Arkansas,AR,79.0,67.0,8.0,8.0,0.0,0.1274177,12.0,2.0,1.0,21741.0,33.735953,-93.664355,5,1,0.2
0500000US05059,5059.0,Hot Spring,Arkansas,AR,72.0,64.0,6.0,6.0,0.0,0.3955908,8.0,2.0,1.0,33701.0,34.315177,-92.944147,8,0,0.0
0500000US05061,5061.0,Howard,Arkansas,AR,20.0,20.0,6.0,6.0,0.0,0.2683836,0.0,2.0,1.0,13341.0,34.083064,-93.990931,14,1,0.07142857142857142
0500000US05063,5063.0,Independence,Arkansas,AR,235.0,184.0,12.0,12.0,0.0,0.43694160000000004,51.0,4.0,1.0,37678.0,35.737499,-91.559942,8,0,0.0
0500000US05065,5065.0,Izard,Arkansas,AR,25.0,25.0,4.0,4.0,0.0,0.18476710000000002,0.0,1.0,1.0,13593.0,36.094879,-91.913625,2,0,0.0
0500000US05069,5069.0,Jefferson,Arkansas,AR,471.0,271.0,34.0,34.0,0.0,0.4320477,200.0,7.0,1.0,68114.0,34.277239,-91.929673,136,7,0.051470588235294115
0500000US05071,5071.0,Johnson,Arkansas,AR,90.0,57.0,8.0,8.0,0.0,0.2152367000000001,33.0,2.0,1.0,26742.0,35.573359,-93.466322,25,0,0.0
0500000US05075,5075.0,Lawrence,Arkansas,AR,25.0,25.0,4.0,4.0,0.0,0.30276240000000004,0.0,2.0,1.0,16434.0,36.041098,-91.101153,29,1,0.034482758620689655
0500000US05083,5083.0,Logan,Arkansas,AR,41.0,40.0,7.0,7.0,0.0,0.17571345,1.0,3.0,2.0,21737.0,35.218654,-93.72091,3,0,0.0
0500000US05091,5091.0,Miller,Arkansas,AR,62.0,50.0,0.0,0.0,0.0,0.6181918000000001,12.0,0.0,1.0,43592.0,33.305505,-93.901502,30,1,0.03333333333333333
0500000US05093,5093.0,Mississippi,Arkansas,AR,124.0,124.0,9.0,9.0,0.0,0.2339593,0.0,3.0,2.0,41239.0,35.766944,-90.052207,9,0,0.0
0500000US05103,5103.0,Ouachita,Arkansas,AR,98.0,82.0,8.0,8.0,0.0,0.16518539999999998,16.0,2.0,1.0,23606.0,33.591168,-92.878413,5,0,0.0
0500000US05107,5107.0,Phillips,Arkansas,AR,155.0,127.0,6.0,6.0,0.0,0.09517851,28.0,2.0,1.0,18029.0,34.423687,-90.855593,4,1,0.25
0500000US05113,5113.0,Polk,Arkansas,AR,65.0,41.0,6.0,6.0,0.0,0.28406279999999995,24.0,2.0,1.0,20049.0,34.490915,-94.230884,7,0,0.0
0500000US05115,5115.0,Pope,Arkansas,AR,170.0,137.0,11.0,11.0,0.0,0.42881709999999995,33.0,4.0,1.0,64000.0,35.45655700000001,-93.026818,36,0,0.0
0500000US05119,5119.0,Pulaski,Arkansas,AR,4324.0,3570.0,220.0,220.0,168.0,0.4977852947368421,754.0,63.0,19.0,392680.0,34.770311,-92.312996,527,12,0.022770398481973434
0500000US05121,5121.0,Randolph,Arkansas,AR,50.0,32.0,2.0,2.0,0.0,0.16506849999999998,18.0,1.0,1.0,17948.0,36.341298,-91.028441,14,0,0.0
0500000US05123,5123.0,St. Francis,Arkansas,AR,118.0,56.0,6.0,6.0,0.0,0.24300389999999997,62.0,2.0,1.0,25439.0,35.022838,-90.751505,66,0,0.0
0500000US05125,5125.0,Saline,Arkansas,AR,257.0,207.0,16.0,16.0,0.0,0.5821729,50.0,3.0,2.0,121421.0,34.648525,-92.674463,48,1,0.020833333333333332
0500000US05127,5127.0,Scott,Arkansas,AR,24.0,24.0,4.0,4.0,0.0,0.13470320000000002,0.0,1.0,1.0,10319.0,34.858869,-94.063641,1,0,0.0
0500000US05131,5131.0,Sebastian,Arkansas,AR,1081.0,779.0,80.0,80.0,25.0,0.675247,302.0,27.0,6.0,127753.0,35.196981,-94.274989,11,0,0.0
0500000US05137,5137.0,Stone,Arkansas,AR,25.0,25.0,4.0,4.0,0.0,0.2191781,0.0,1.0,1.0,12457.0,35.85700100000001,-92.140482,7,0,0.0
0500000US05139,5139.0,Union,Arkansas,AR,166.0,111.0,16.0,16.0,0.0,0.3255254,55.0,3.0,1.0,39126.0,33.168219,-92.598145,28,0,0.0
0500000US05141,5141.0,Van Buren,Arkansas,AR,25.0,25.0,4.0,4.0,0.0,0.5206575,0.0,2.0,1.0,16603.0,35.582953,-92.515976,26,2,0.07692307692307693
0500000US05143,5143.0,Washington,Arkansas,AR,1068.0,836.0,78.0,78.0,34.0,0.4954222999999999,232.0,17.0,9.0,236961.0,35.978001,-94.217269,61,1,0.01639344262295082
0500000US05145,5145.0,White,Arkansas,AR,272.0,272.0,17.0,17.0,0.0,0.5386285,0.0,10.0,2.0,78727.0,35.255118,-91.753034,29,1,0.034482758620689655
0500000US05149,5149.0,Yell,Arkansas,AR,76.0,55.0,9.0,9.0,0.0,0.3744384,21.0,3.0,2.0,21535.0,34.997713,-93.408303,3,0,0.0
0500000US06001,6001.0,Alameda,California,CA,3464.0,3564.0,331.0,331.0,151.0,0.5220339684210525,-100.0,74.0,19.0,1666753.0,37.647139,-121.91248799999998,1260,43,0.034126984126984124
0500000US06005,6005.0,Amador,California,CA,52.0,52.0,6.0,6.0,0.0,0.4705479,0.0,3.0,1.0,39383.0,38.44355,-120.653856,7,0,0.0
0500000US06007,6007.0,Butte,California,CA,401.0,471.0,47.0,47.0,6.0,0.491997625,-70.0,19.0,4.0,231256.0,39.665959,-121.601919,16,0,0.0
0500000US06009,6009.0,Calaveras,California,CA,25.0,25.0,5.0,5.0,0.0,0.3442192,0.0,2.0,1.0,45602.0,38.1839,-120.561441,12,0,0.0
0500000US06013,6013.0,Contra Costa,California,CA,1696.0,1636.0,172.0,172.0,97.0,0.4946817777777777,60.0,44.0,9.0,1150215.0,37.919479,-121.951543,763,22,0.028833551769331587
0500000US06015,6015.0,Del Norte,California,CA,49.0,39.0,6.0,6.0,0.0,0.518019,10.0,3.0,1.0,27828.0,41.763958,-124.00361399999998,2,0,0.0
0500000US06017,6017.0,El Dorado,California,CA,190.0,189.0,28.0,28.0,0.0,0.2688408,1.0,6.0,3.0,190678.0,38.785612,-120.534225,39,0,0.0
0500000US06019,6019.0,Fresno,California,CA,1848.0,2999.0,418.0,418.0,104.0,0.3676234192307693,-1151.0,50.0,13.0,994400.0,36.761006,-119.655019,384,7,0.018229166666666668
0500000US06021,6021.0,Glenn,California,CA,47.0,15.0,3.0,3.0,0.0,1.0,32.0,1.0,1.0,28047.0,39.602546,-122.4017,4,0,0.0
0500000US06023,6023.0,Humboldt,California,CA,276.0,233.0,27.0,27.0,5.0,0.5499029799999999,43.0,12.0,5.0,136373.0,40.706655,-123.926176,52,0,0.0
0500000US06025,6025.0,Imperial,California,CA,268.0,268.0,28.0,28.0,0.0,0.41777709999999996,0.0,9.0,2.0,181827.0,33.040814000000005,-115.3554,214,4,0.018691588785046728
0500000US06027,6027.0,Inyo,California,CA,29.0,29.0,5.0,5.0,0.0,0.24246575,0.0,2.0,2.0,17987.0,36.561977,-117.403927,19,1,0.05263157894736842
0500000US06029,6029.0,Kern,California,CA,1535.0,1497.0,160.0,160.0,77.0,0.4599359615384616,38.0,33.0,13.0,896764.0,35.346629,-118.729506,671,3,0.004470938897168405
0500000US06031,6031.0,Kings,California,CA,173.0,142.0,22.0,22.0,0.0,0.5143894999999999,31.0,5.0,1.0,151366.0,36.072478,-119.81553,32,1,0.03125
0500000US06033,6033.0,Lake,California,CA,62.0,50.0,8.0,8.0,0.0,0.6569315,12.0,5.0,2.0,64382.0,39.094802,-122.746757,6,0,0.0
0500000US06037,6037.0,Los Angeles,California,CA,23259.0,22002.0,2352.0,2352.0,1147.0,0.5363693462962963,1257.0,523.0,108.0,10105518.0,34.196397999999995,-118.261862,16435,729,0.04435655613020992
0500000US06039,6039.0,Madera,California,CA,464.0,464.0,52.0,52.0,116.0,0.4707596,0.0,18.0,2.0,157672.0,37.20982100000001,-119.749802,36,2,0.05555555555555555
0500000US06041,6041.0,Marin,California,CA,441.0,441.0,47.0,47.0,8.0,0.4902392499999999,0.0,15.0,4.0,259666.0,38.051817,-122.745974,203,11,0.054187192118226604
0500000US06045,6045.0,Mendocino,California,CA,142.0,100.0,14.0,14.0,2.0,0.6151049999999999,42.0,6.0,3.0,87606.0,39.432388,-123.442881,5,0,0.0
0500000US06047,6047.0,Merced,California,CA,106.0,242.0,24.0,24.0,0.0,0.3031244,-136.0,12.0,3.0,274765.0,37.194806,-120.722802,94,3,0.031914893617021274
0500000US06051,6051.0,Mono,California,CA,17.0,17.0,2.0,2.0,0.0,0.26881550000000004,0.0,1.0,1.0,14250.0,37.915836,-118.875167,24,1,0.041666666666666664
0500000US06053,6053.0,Monterey,California,CA,678.0,709.0,47.0,47.0,34.0,0.54064665,-31.0,14.0,4.0,435594.0,36.240107,-121.315572,154,4,0.025974025974025976
0500000US06055,6055.0,Napa,California,CA,510.0,318.0,48.0,48.0,6.0,0.5029718333333334,192.0,9.0,3.0,139417.0,38.5071,-122.325904,58,2,0.034482758620689655
0500000US06057,6057.0,Nevada,California,CA,137.0,129.0,10.0,10.0,0.0,0.536,8.0,7.0,2.0,99696.0,39.297508,-120.771343,38,1,0.02631578947368421
0500000US06059,6059.0,Orange,California,CA,5686.0,5751.0,703.0,703.0,316.0,0.4633351371875001,-65.0,141.0,32.0,3185968.0,33.675687,-117.777207,1753,34,0.01939532230462065
0500000US06061,6061.0,Placer,California,CA,748.0,693.0,70.0,70.0,64.0,0.45816865,55.0,20.0,4.0,393149.0,39.062032,-120.722718,133,8,0.06015037593984962
0500000US06063,6063.0,Plumas,California,CA,35.0,42.0,8.0,8.0,0.0,0.2657944333333333,-7.0,3.0,3.0,18804.0,39.992295,-120.824371,4,0,0.0
0500000US06065,6065.0,Riverside,California,CA,3537.0,3434.0,385.0,385.0,107.0,0.49674624,103.0,89.0,20.0,2450758.0,33.729828000000005,-116.002239,3084,99,0.032101167315175094
0500000US06067,6067.0,Sacramento,California,CA,3295.0,3159.0,377.0,377.0,192.0,0.5308013647058824,136.0,102.0,17.0,1540975.0,38.450016,-121.340441,971,36,0.037075180226570546
0500000US06069,6069.0,San Benito,California,CA,25.0,49.0,8.0,8.0,0.0,0.3344702,-24.0,2.0,1.0,61537.0,36.611651,-121.085811,46,2,0.043478260869565216
0500000US06071,6071.0,San Bernardino,California,CA,4789.0,6221.0,611.0,611.0,305.0,0.4424535,-1432.0,107.0,29.0,2171603.0,34.85722,-116.181197,1489,67,0.04499664204163868
0500000US06073,6073.0,San Diego,California,CA,6415.0,6345.0,698.0,698.0,320.0,0.4846568007142856,70.0,175.0,28.0,3343364.0,33.023604,-116.776117,2491,96,0.03853873946206343
0500000US06075,6075.0,San Francisco,California,CA,2860.0,2784.0,404.0,404.0,129.0,0.3543876558823529,76.0,44.0,17.0,883305.0,37.727239,-123.032229,1236,21,0.01699029126213592
0500000US06077,6077.0,San Joaquin,California,CA,2161.0,1334.0,110.0,110.0,79.0,0.4393832999999999,827.0,47.0,10.0,752660.0,37.934982,-121.272244,472,20,0.0423728813559322
0500000US06079,6079.0,San Luis Obispo,California,CA,780.0,1685.0,63.0,63.0,22.0,0.2372977142857143,-905.0,13.0,7.0,284010.0,35.385224,-120.447544,142,1,0.007042253521126761
0500000US06081,6081.0,San Mateo,California,CA,2217.0,1920.0,133.0,133.0,16.0,0.2613191077777778,297.0,21.0,9.0,769545.0,37.414672,-122.371546,958,39,0.0407098121085595
0500000US06083,6083.0,Santa Barbara,California,CA,826.0,631.0,84.0,84.0,51.0,0.5041749000000001,195.0,26.0,6.0,446527.0,34.537057,-120.039973,440,5,0.011363636363636364
0500000US06085,6085.0,Santa Clara,California,CA,4382.0,4252.0,445.0,445.0,276.0,0.5273625692307692,130.0,87.0,13.0,1937570.0,37.220695,-121.69051,1962,95,0.04841997961264016
0500000US06087,6087.0,Santa Cruz,California,CA,372.0,354.0,27.0,27.0,24.0,0.54633005,18.0,13.0,4.0,274255.0,37.012488,-122.007205,111,2,0.018018018018018018
0500000US06089,6089.0,Shasta,California,CA,590.0,571.0,96.0,96.0,16.0,0.35318753666666663,19.0,35.0,6.0,180040.0,40.760514,-122.043556,27,3,0.1111111111111111
0500000US06093,6093.0,Siskiyou,California,CA,61.0,50.0,8.0,8.0,0.0,0.4168767,11.0,4.0,2.0,43724.0,41.587986,-122.53328700000002,5,0,0.0
0500000US06095,6095.0,Solano,California,CA,1519.0,1017.0,104.0,104.0,16.0,0.3540697375,502.0,17.0,8.0,446610.0,38.267226,-121.939594,186,3,0.016129032258064516
0500000US06097,6097.0,Sonoma,California,CA,817.0,824.0,82.0,82.0,12.0,0.4626887124999999,-7.0,30.0,8.0,499942.0,38.525182,-122.92611,194,2,0.010309278350515464
0500000US06099,6099.0,Stanislaus,California,CA,1394.0,1380.0,123.0,123.0,63.0,0.3859407444444444,14.0,51.0,9.0,549815.0,37.562316,-121.002831,251,5,0.0199203187250996
0500000US06101,6101.0,Sutter,California,CA,30.0,30.0,2.0,2.0,0.0,0.07527723333333332,0.0,0.0,3.0,96807.0,39.03619000000001,-121.70394,26,2,0.07692307692307693
0500000US06103,6103.0,Tehama,California,CA,92.0,65.0,11.0,11.0,0.0,0.27676825,27.0,4.0,2.0,63916.0,40.126157,-122.232274,1,0,0.0
0500000US06107,6107.0,Tulare,California,CA,830.0,746.0,84.0,84.0,15.0,0.27661336,84.0,17.0,5.0,465861.0,36.228834,-118.781055,441,25,0.05668934240362812
0500000US06109,6109.0,Tuolumne,California,CA,72.0,84.0,6.0,6.0,0.0,0.5068819999999999,-12.0,5.0,1.0,54539.0,38.021434,-119.964733,2,0,0.0
0500000US06111,6111.0,Ventura,California,CA,1379.0,1388.0,162.0,162.0,76.0,0.40653183333333337,-9.0,35.0,9.0,850967.0,34.358740999999995,-119.133143,451,14,0.031042128603104215
0500000US06113,6113.0,Yolo,California,CA,122.0,125.0,14.0,14.0,0.0,0.47558549999999994,-3.0,7.0,2.0,220408.0,38.679596,-121.902441,151,12,0.07947019867549669
0500000US06115,6115.0,Yuba,California,CA,221.0,149.0,24.0,24.0,6.0,0.7073475,72.0,12.0,1.0,78041.0,39.27013,-121.344259,16,3,0.1875
0500000US08001,8001.0,Adams,Colorado,CO,1559.0,1454.0,232.0,232.0,148.0,0.4205835625,105.0,39.0,8.0,511868.0,39.874325,-104.331872,1033,46,0.044530493707647625
0500000US08003,8003.0,Alamosa,Colorado,CO,49.0,49.0,6.0,6.0,0.0,0.3779145,0.0,2.0,1.0,16683.0,37.568442,-105.788041,9,2,0.2222222222222222
0500000US08005,8005.0,Arapahoe,Colorado,CO,1241.0,1060.0,148.0,148.0,45.0,0.626820775,181.0,26.0,8.0,651215.0,39.644554,-104.331706,1717,96,0.05591147350029121
0500000US08007,8007.0,Archuleta,Colorado,CO,11.0,11.0,2.0,2.0,0.0,0.2956413,0.0,1.0,1.0,13765.0,37.202395,-107.050863,9,0,0.0
0500000US08009,8009.0,Baca,Colorado,CO,23.0,15.0,3.0,3.0,0.0,0.3282192,8.0,2.0,1.0,3585.0,37.30978,-102.543741,10,0,0.0
0500000US08013,8013.0,Boulder,Colorado,CO,856.0,715.0,72.0,72.0,44.0,0.5223320166666666,141.0,14.0,6.0,326078.0,40.09497,-105.397691,417,23,0.05515587529976019
0500000US08014,8014.0,Broomfield,Colorado,CO,40.0,22.0,4.0,4.0,0.0,0.28692399999999996,18.0,1.0,1.0,69267.0,39.953593,-105.050787,110,3,0.02727272727272727
0500000US08015,8015.0,Chaffee,Colorado,CO,25.0,25.0,2.0,2.0,0.0,0.41019179999999994,0.0,2.0,1.0,20027.0,38.738223,-106.316683,55,9,0.16363636363636364
0500000US08029,8029.0,Delta,Colorado,CO,49.0,49.0,6.0,6.0,0.0,0.273693,0.0,2.0,1.0,30953.0,38.861595,-107.864892,25,1,0.04
0500000US08031,8031.0,Denver,Colorado,CO,3071.0,2030.0,294.0,294.0,126.0,0.4018907358333333,1041.0,26.0,12.0,716492.0,39.76185,-104.881105,2166,96,0.0443213296398892
0500000US08035,8035.0,Douglas,Colorado,CO,778.0,771.0,70.0,70.0,44.0,0.46444885,7.0,13.0,6.0,342776.0,39.325414,-104.925987,392,21,0.05357142857142857
0500000US08037,8037.0,Eagle,Colorado,CO,56.0,56.0,5.0,5.0,0.0,0.2490705,0.0,2.0,1.0,54993.0,39.626992,-106.695169,488,7,0.014344262295081968
0500000US08041,8041.0,El Paso,Colorado,CO,1348.0,1294.0,130.0,130.0,130.0,0.4387704125,54.0,25.0,8.0,713856.0,38.82738300000001,-104.527472,774,54,0.06976744186046512
0500000US08043,8043.0,Fremont,Colorado,CO,25.0,25.0,4.0,4.0,0.0,0.5951780999999999,0.0,2.0,1.0,48021.0,38.45517,-105.424958,19,0,0.0
0500000US08045,8045.0,Garfield,Colorado,CO,103.0,53.0,8.0,8.0,2.0,0.6188996999999999,50.0,4.0,2.0,59770.0,39.599352,-107.90978,71,2,0.028169014084507043
0500000US08049,8049.0,Grand,Colorado,CO,23.0,21.0,3.0,3.0,0.0,0.48545340000000003,2.0,0.0,1.0,15525.0,40.113065,-106.11083700000002,5,0,0.0
0500000US08051,8051.0,Gunnison,Colorado,CO,24.0,20.0,3.0,3.0,0.0,0.23342470000000004,4.0,2.0,1.0,17246.0,38.670499,-107.05688,121,4,0.03305785123966942
0500000US08055,8055.0,Huerfano,Colorado,CO,20.0,16.0,3.0,3.0,0.0,0.13407529999999998,4.0,0.0,1.0,6889.0,37.687815,-104.959928,1,0,0.0
0500000US08059,8059.0,Jefferson,Colorado,CO,641.0,474.0,104.0,104.0,20.0,0.341461564,167.0,17.0,5.0,580233.0,39.579511,-105.24546200000002,1064,43,0.040413533834586464
0500000US08063,8063.0,Kit Carson,Colorado,CO,19.0,19.0,3.0,3.0,0.0,0.2438356,0.0,0.0,1.0,7163.0,39.30534,-102.603023,18,1,0.05555555555555555
0500000US08065,8065.0,Lake,Colorado,CO,25.0,8.0,1.0,1.0,0.0,0.09486301,17.0,1.0,1.0,7824.0,39.205341,-106.350079,9,0,0.0
0500000US08067,8067.0,La Plata,Colorado,CO,94.0,94.0,13.0,13.0,0.0,0.3255513,0.0,2.0,2.0,56310.0,37.287367,-107.839718,53,0,0.0
0500000US08069,8069.0,Larimer,Colorado,CO,742.0,712.0,64.0,64.0,25.0,0.5304490875,30.0,25.0,8.0,350518.0,40.658093,-105.486764,266,14,0.05263157894736842
0500000US08071,8071.0,Las Animas,Colorado,CO,25.0,25.0,4.0,4.0,0.0,0.28701370000000004,0.0,2.0,1.0,14503.0,37.318831,-104.04411,3,0,0.0
0500000US08073,8073.0,Lincoln,Colorado,CO,15.0,15.0,3.0,3.0,0.0,0.1724201,0.0,0.0,1.0,5610.0,38.99374,-103.507555,3,0,0.0
0500000US08075,8075.0,Logan,Colorado,CO,25.0,25.0,4.0,4.0,0.0,0.3240548,0.0,2.0,1.0,21528.0,40.728091,-103.090464,24,1,0.041666666666666664
0500000US08077,8077.0,Mesa,Colorado,CO,495.0,399.0,35.0,35.0,0.0,0.39659004,96.0,13.0,5.0,153207.0,39.019524,-108.460571,37,0,0.0
0500000US08081,8081.0,Moffat,Colorado,CO,25.0,25.0,4.0,4.0,0.0,0.3530959,0.0,2.0,1.0,13188.0,40.610864,-108.217154,6,0,0.0
0500000US08083,8083.0,Montezuma,Colorado,CO,25.0,25.0,4.0,4.0,0.0,0.3845479000000001,0.0,2.0,1.0,26158.0,37.338025,-108.595786,13,2,0.15384615384615385
0500000US08085,8085.0,Montrose,Colorado,CO,75.0,50.0,8.0,8.0,0.0,0.3665206,25.0,2.0,1.0,42214.0,38.407507,-108.266282,82,9,0.10975609756097561
0500000US08087,8087.0,Morgan,Colorado,CO,75.0,61.0,10.0,10.0,0.0,0.15463925,14.0,3.0,2.0,28558.0,40.263159,-103.81221,202,4,0.019801980198019802
0500000US08089,8089.0,Otero,Colorado,CO,25.0,0.0,5.0,5.0,0.0,0.4908219,25.0,2.0,1.0,18432.0,37.88417000000001,-103.72126,7,0,0.0
0500000US08095,8095.0,Phillips,Colorado,CO,40.0,40.0,7.0,7.0,0.0,0.50631965,0.0,0.0,2.0,4286.0,40.594712,-102.345105,5,0,0.0
0500000US08097,8097.0,Pitkin,Colorado,CO,25.0,25.0,4.0,4.0,0.0,0.25457529999999995,0.0,2.0,1.0,17950.0,39.217538,-106.916159,58,2,0.034482758620689655
0500000US08099,8099.0,Prowers,Colorado,CO,25.0,25.0,4.0,4.0,0.0,0.32734250000000004,0.0,1.0,1.0,12164.0,37.958181,-102.392161,1,0,0.0
0500000US08101,8101.0,Pueblo,Colorado,CO,1252.0,494.0,17.0,17.0,0.0,0.7274494666666667,758.0,12.0,3.0,167529.0,38.170658,-104.489892,107,7,0.06542056074766354
0500000US08103,8103.0,Rio Blanco,Colorado,CO,35.0,35.0,6.0,6.0,0.0,0.48021915,0.0,2.0,2.0,6336.0,39.972622,-108.200716,1,0,0.0
0500000US08105,8105.0,Rio Grande,Colorado,CO,17.0,17.0,3.0,3.0,0.0,0.396938,0.0,2.0,1.0,11250.0,37.48585300000001,-106.453128,7,0,0.0
0500000US08107,8107.0,Routt,Colorado,CO,39.0,39.0,4.0,4.0,0.0,0.2238145,0.0,2.0,1.0,25733.0,40.48366400000001,-106.987702,52,3,0.057692307692307696
0500000US08117,8117.0,Summit,Colorado,CO,35.0,34.0,8.0,8.0,0.0,0.2525383,1.0,2.0,1.0,31007.0,39.621023,-106.137555,88,1,0.011363636363636364
0500000US08119,8119.0,Teller,Colorado,CO,15.0,15.0,3.0,3.0,0.0,0.29461190000000004,0.0,1.0,1.0,25083.0,38.869976,-105.187365,25,2,0.08
0500000US08123,8123.0,Weld,Colorado,CO,428.0,225.0,33.0,33.0,0.0,0.26183865,203.0,7.0,2.0,314305.0,40.555961,-104.383666,1237,69,0.05578011317704123
0500000US08125,8125.0,Yuma,Colorado,CO,30.0,30.0,6.0,6.0,0.0,0.18570205,0.0,1.0,2.0,10020.0,40.00077,-102.421649,4,0,0.0
0500000US09001,9001.0,Fairfield,Connecticut,CT,1713.0,1713.0,173.0,173.0,26.0,0.6849312249999999,0.0,44.0,8.0,943823.0,41.227413,-73.36706099999998,10386,591,0.05690352397458117
0500000US09003,9003.0,Hartford,Connecticut,CT,3086.0,2948.0,476.0,476.0,118.0,0.5123912776923076,138.0,62.0,13.0,892697.0,41.80605300000001,-72.732916,4128,442,0.10707364341085271
0500000US09005,9005.0,Litchfield,Connecticut,CT,157.0,157.0,21.0,21.0,0.0,0.38831140000000003,0.0,7.0,2.0,181111.0,41.791883,-73.235404,722,63,0.08725761772853186
0500000US09007,9007.0,Middlesex,Connecticut,CT,736.0,736.0,40.0,40.0,0.0,0.360788625,0.0,7.0,4.0,162682.0,41.433003,-72.52278000000003,525,53,0.10095238095238095
0500000US09009,9009.0,New Haven,Connecticut,CT,1717.0,1717.0,201.0,201.0,107.0,0.493998175,0.0,52.0,12.0,857620.0,41.349718,-72.900203,5811,345,0.05937016004130098
0500000US09011,9011.0,New London,Connecticut,CT,419.0,419.0,25.0,25.0,13.0,0.4230157333333333,0.0,12.0,3.0,266784.0,41.472652,-72.108634,397,14,0.03526448362720403
0500000US09013,9013.0,Tolland,Connecticut,CT,209.0,209.0,16.0,16.0,0.0,0.5787338000000001,0.0,4.0,3.0,150921.0,41.858081,-72.340978,331,32,0.09667673716012085
0500000US09015,9015.0,Windham,Connecticut,CT,148.0,148.0,14.0,14.0,0.0,0.5166311,0.0,5.0,2.0,117027.0,41.824999,-71.990702,122,4,0.03278688524590164
0500000US10001,10001.0,Kent,Delaware,DE,404.0,414.0,29.0,29.0,15.0,0.7827135000000001,-10.0,12.0,3.0,178550.0,39.097088,-75.50298199999997,503,15,0.02982107355864811
0500000US10003,10003.0,New Castle,Delaware,DE,2094.0,1715.0,183.0,183.0,6.0,0.6648175000000001,379.0,80.0,9.0,559335.0,39.575915,-75.644132,1380,38,0.02753623188405797
0500000US10005,10005.0,Sussex,Delaware,DE,567.0,507.0,52.0,52.0,0.0,0.448562,60.0,13.0,4.0,229286.0,38.673227,-75.337024,1317,36,0.02733485193621868
0500000US11001,11001.0,District of Columbia,District of Columbia,DC,4098.0,3077.0,407.0,407.0,113.0,0.5668814142857143,1021.0,103.0,14.0,702455.0,38.904247,-77.01651700000002,3206,127,0.03961322520274485
0500000US12001,12001.0,Alachua,Florida,FL,2050.0,1549.0,233.0,233.0,130.0,0.3673360714285714,501.0,52.0,7.0,269956.0,29.67574,-82.357221,227,1,0.004405286343612335
0500000US12003,12003.0,Baker,Florida,FL,1163.0,81.0,4.0,4.0,0.0,0.5554077,1082.0,0.0,2.0,28355.0,30.324442,-82.302284,17,3,0.17647058823529413
0500000US12005,12005.0,Bay,Florida,FL,707.0,676.0,77.0,77.0,32.0,0.6512009249999999,31.0,20.0,4.0,185287.0,30.238218,-85.63168,59,2,0.03389830508474576
0500000US12007,12007.0,Bradford,Florida,FL,49.0,25.0,4.0,4.0,0.0,0.445589,24.0,2.0,1.0,27732.0,29.952386,-82.166679,42,2,0.047619047619047616
0500000US12009,12009.0,Brevard,Florida,FL,1807.0,1867.0,288.0,288.0,0.0,0.4923325818181818,-60.0,54.0,11.0,596849.0,28.298311,-80.700333,225,7,0.03111111111111111
0500000US12011,12011.0,Broward,Florida,FL,6025.0,4702.0,525.0,525.0,191.0,0.5987073571428569,1323.0,93.0,21.0,1951260.0,26.193535,-80.476683,4228,141,0.033349101229895935
0500000US12013,12013.0,Calhoun,Florida,FL,25.0,15.0,3.0,3.0,0.0,0.5004566,10.0,2.0,1.0,14587.0,30.388801,-85.19791500000002,6,0,0.0
0500000US12015,12015.0,Charlotte,Florida,FL,715.0,595.0,51.0,51.0,7.0,0.5152939000000001,120.0,19.0,3.0,184998.0,26.868974,-81.941278,148,11,0.07432432432432433
0500000US12017,12017.0,Citrus,Florida,FL,332.0,332.0,40.0,40.0,0.0,0.55691395,0.0,14.0,2.0,147929.0,28.84364,-82.52481,92,8,0.08695652173913043
0500000US12019,12019.0,Clay,Florida,FL,503.0,459.0,42.0,42.0,16.0,0.6549929333333333,44.0,20.0,3.0,216072.0,29.986584000000004,-81.865036,257,11,0.042801556420233464
0500000US12021,12021.0,Collier,Florida,FL,633.0,773.0,81.0,81.0,19.0,0.6650234499999998,-140.0,23.0,4.0,378488.0,26.118786,-81.40095500000002,483,10,0.020703933747412008
0500000US12023,12023.0,Columbia,Florida,FL,468.0,456.0,28.0,28.0,0.0,0.32068936666666664,12.0,7.0,3.0,70503.0,30.221651,-82.62337099999998,43,0,0.0
0500000US12027,12027.0,DeSoto,Florida,FL,49.0,49.0,8.0,8.0,0.0,0.1749511,0.0,2.0,1.0,37489.0,27.190581,-81.806253,24,4,0.16666666666666666
0500000US12031,12031.0,Duval,Florida,FL,3456.0,3119.0,416.0,416.0,156.0,0.4676652285714286,337.0,90.0,14.0,950181.0,30.335245,-81.648113,925,17,0.018378378378378378
0500000US12033,12033.0,Escambia,Florida,FL,1648.0,1258.0,111.0,111.0,82.0,0.6780680250000001,390.0,40.0,4.0,315534.0,30.611638,-87.3389,418,10,0.023923444976076555
0500000US12035,12035.0,Flagler,Florida,FL,99.0,99.0,18.0,18.0,0.0,0.9044694,0.0,3.0,1.0,112067.0,29.474891,-81.286253,78,2,0.02564102564102564
0500000US12037,12037.0,Franklin,Florida,FL,25.0,25.0,4.0,4.0,0.0,0.05216438,0.0,1.0,1.0,11736.0,29.810176,-84.799174,2,0,0.0
0500000US12039,12039.0,Gadsden,Florida,FL,949.0,24.0,4.0,4.0,0.0,0.197032,925.0,0.0,1.0,45894.0,30.578687,-84.612607,57,0,0.0
0500000US12045,12045.0,Gulf,Florida,FL,19.0,19.0,3.0,3.0,0.0,0.20273970000000002,0.0,2.0,1.0,16164.0,29.907257,-85.256537,1,0,0.0
0500000US12049,12049.0,Hardee,Florida,FL,25.0,25.0,4.0,4.0,0.0,0.9115617,0.0,1.0,1.0,27245.0,27.492846000000004,-81.82158000000003,4,0,0.0
0500000US12051,12051.0,Hendry,Florida,FL,25.0,25.0,3.0,3.0,0.0,0.15780819999999998,0.0,2.0,1.0,41556.0,26.539967,-81.152114,52,1,0.019230769230769232
0500000US12053,12053.0,Hernando,Florida,FL,616.0,546.0,44.0,44.0,10.0,0.776092775,70.0,14.0,4.0,190865.0,28.573043,-82.466227,84,3,0.03571428571428571
0500000US12055,12055.0,Highlands,Florida,FL,273.0,259.0,38.0,38.0,0.0,0.48726165,14.0,8.0,2.0,105424.0,27.34108,-81.342353,71,7,0.09859154929577464
0500000US12057,12057.0,Hillsborough,Florida,FL,4056.0,3564.0,460.0,460.0,205.0,0.4573219399999999,492.0,98.0,15.0,1436888.0,27.906607,-82.349719,982,20,0.020366598778004074
0500000US12059,12059.0,Holmes,Florida,FL,20.0,20.0,3.0,3.0,0.0,0.4691781,0.0,2.0,1.0,19477.0,30.862007,-85.815939,8,0,0.0
0500000US12061,12061.0,Indian River,Florida,FL,566.0,511.0,43.0,43.0,0.0,0.5540721,55.0,13.0,3.0,157413.0,27.700528,-80.574789,85,5,0.058823529411764705
0500000US12063,12063.0,Jackson,Florida,FL,100.0,66.0,7.0,7.0,0.0,0.5179328,34.0,3.0,1.0,48305.0,30.789249,-85.208814,11,0,0.0
0500000US12069,12069.0,Lake,Florida,FL,851.0,783.0,129.0,129.0,0.0,0.71097,68.0,19.0,4.0,356495.0,28.764113,-81.712282,213,7,0.03286384976525822
0500000US12071,12071.0,Lee,Florida,FL,1614.0,1232.0,151.0,151.0,152.0,0.63517115,382.0,91.0,6.0,754610.0,26.559035,-81.891994,794,29,0.036523929471032744
0500000US12073,12073.0,Leon,Florida,FL,1208.0,822.0,61.0,61.0,30.0,0.61518374,386.0,36.0,5.0,292502.0,30.45931,-84.2778,185,1,0.005405405405405406
0500000US12079,12079.0,Madison,Florida,FL,25.0,25.0,4.0,4.0,0.0,0.4626849,0.0,2.0,1.0,18529.0,30.447233,-83.470416,35,2,0.05714285714285714
0500000US12081,12081.0,Manatee,Florida,FL,895.0,867.0,113.0,113.0,6.0,0.6397994199999999,28.0,21.0,5.0,394855.0,27.481682,-82.368767,445,34,0.07640449438202247
0500000US12083,12083.0,Marion,Florida,FL,910.0,817.0,116.0,116.0,0.0,0.6726110833333333,93.0,30.0,6.0,359977.0,29.202805,-82.0431,130,3,0.023076923076923078
0500000US12085,12085.0,Martin,Florida,FL,388.0,366.0,66.0,66.0,0.0,0.488144025,22.0,17.0,4.0,160912.0,27.083604,-80.398201,161,4,0.024844720496894408
0500000US12086,12086.0,Miami-Dade,Florida,FL,7842.0,7771.0,858.0,858.0,258.0,0.5005504655172412,71.0,192.0,29.0,2761581.0,25.61058,-80.497099,10152,274,0.02698975571315997
0500000US12087,12087.0,Monroe,Florida,FL,147.0,129.0,14.0,14.0,0.0,0.16160361666666667,18.0,6.0,3.0,75027.0,24.768883,-80.95326999999997,73,3,0.0410958904109589
0500000US12089,12089.0,Nassau,Florida,FL,62.0,54.0,9.0,9.0,0.0,0.5927448000000001,8.0,3.0,1.0,85832.0,30.605963,-81.765087,46,0,0.0
0500000US12091,12091.0,Okaloosa,Florida,FL,493.0,441.0,51.0,51.0,10.0,0.34434051999999993,52.0,15.0,5.0,207269.0,30.665851,-86.594187,134,3,0.022388059701492536
0500000US12093,12093.0,Okeechobee,Florida,FL,100.0,100.0,8.0,8.0,0.0,0.4747123,0.0,3.0,1.0,41537.0,27.385592,-80.887388,8,0,0.0
0500000US12095,12095.0,Orange,Florida,FL,3043.0,4291.0,349.0,349.0,295.0,0.5320816300000001,-1248.0,67.0,10.0,1380645.0,28.514391,-81.323284,1250,27,0.0216
0500000US12097,12097.0,Osceola,Florida,FL,628.0,575.0,66.0,66.0,24.0,0.54888105,53.0,14.0,4.0,367990.0,28.059027,-81.139312,423,6,0.014184397163120567
0500000US12099,12099.0,Palm Beach,Florida,FL,4440.0,3967.0,427.0,427.0,136.0,0.5173494411764705,473.0,116.0,17.0,1485941.0,26.64912600000001,-80.44835400000002,2401,131,0.054560599750104126
0500000US12101,12101.0,Pasco,Florida,FL,1407.0,1384.0,143.0,143.0,12.0,0.5414146111111111,23.0,29.0,9.0,539630.0,28.307711,-82.464832,218,3,0.013761467889908258
0500000US12103,12103.0,Pinellas,Florida,FL,3874.0,3307.0,285.0,285.0,122.0,0.5415924933333333,567.0,76.0,15.0,975280.0,27.903108000000003,-82.739519,638,19,0.029780564263322883
0500000US12105,12105.0,Polk,Florida,FL,1736.0,1580.0,145.0,145.0,45.0,0.48497736,156.0,41.0,5.0,708009.0,27.953649,-81.693534,361,15,0.04155124653739612
0500000US12107,12107.0,Putnam,Florida,FL,99.0,99.0,10.0,10.0,0.0,0.6188182999999999,0.0,5.0,1.0,74163.0,29.593896,-81.732039,65,1,0.015384615384615385
0500000US12109,12109.0,St. Johns,Florida,FL,335.0,335.0,47.0,47.0,7.0,0.4550072,0.0,6.0,1.0,254261.0,29.890487,-81.40004,195,4,0.020512820512820513
0500000US12111,12111.0,St. Lucie,Florida,FL,873.0,728.0,77.0,77.0,6.0,0.5720440250000001,145.0,18.0,4.0,321128.0,27.379814,-80.443536,207,16,0.07729468599033816
0500000US12113,12113.0,Santa Rosa,Florida,FL,355.0,294.0,20.0,20.0,0.0,0.524492,61.0,6.0,4.0,179349.0,30.701269,-87.01289,144,6,0.041666666666666664
0500000US12115,12115.0,Sarasota,Florida,FL,1542.0,1277.0,128.0,128.0,33.0,0.6059027666666666,265.0,35.0,6.0,426718.0,27.184386,-82.365835,299,31,0.10367892976588629
0500000US12117,12117.0,Seminole,Florida,FL,345.0,332.0,39.0,39.0,0.0,0.6949838333333332,13.0,9.0,3.0,467832.0,28.690092,-81.131989,332,6,0.018072289156626505
0500000US12119,12119.0,Sumter,Florida,FL,347.0,317.0,62.0,62.0,0.0,0.6591729000000001,30.0,11.0,2.0,128754.0,28.714101,-82.074347,164,11,0.06707317073170732
0500000US12121,12121.0,Suwannee,Florida,FL,25.0,25.0,4.0,4.0,0.0,0.3880548,0.0,2.0,1.0,44191.0,30.189244,-82.992754,104,9,0.08653846153846154
0500000US12123,12123.0,Taylor,Florida,FL,48.0,48.0,6.0,6.0,0.0,0.1098173,0.0,2.0,1.0,21623.0,30.00990800000001,-83.609483,2,0,0.0
0500000US12125,12125.0,Union,Florida,FL,145.0,145.0,25.0,25.0,0.0,0.16756164999999998,0.0,1.0,2.0,14940.0,30.05428,-82.366918,3,0,0.0
0500000US12127,12127.0,Volusia,Florida,FL,1453.0,1434.0,264.0,264.0,16.0,0.5775921571428572,19.0,33.0,7.0,547538.0,29.057769,-81.161792,375,13,0.034666666666666665
0500000US12131,12131.0,Walton,Florida,FL,136.0,112.0,28.0,28.0,0.0,0.36055765,24.0,4.0,2.0,71375.0,30.631211,-86.176614,32,0,0.0
0500000US12133,12133.0,Washington,Florida,FL,59.0,25.0,4.0,4.0,0.0,0.5859726,34.0,2.0,1.0,24880.0,30.602217,-85.662797,10,0,0.0
0500000US13001,13001.0,Appling,Georgia,GA,49.0,34.0,3.0,3.0,0.0,0.2104754,15.0,2.0,1.0,18507.0,31.739712,-82.290103,47,2,0.0425531914893617
0500000US13005,13005.0,Bacon,Georgia,GA,25.0,25.0,4.0,4.0,0.0,0.5176986,0.0,1.0,1.0,11185.0,31.55021,-82.451433,20,1,0.05
0500000US13009,13009.0,Baldwin,Georgia,GA,365.0,280.0,12.0,12.0,0.0,0.13795079999999998,85.0,2.0,2.0,44823.0,33.059490000000004,-83.25545699999998,155,4,0.025806451612903226
0500000US13013,13013.0,Barrow,Georgia,GA,56.0,56.0,6.0,6.0,0.0,0.1889922,0.0,2.0,1.0,80809.0,33.992009,-83.712303,103,3,0.02912621359223301
0500000US13015,13015.0,Bartow,Georgia,GA,119.0,119.0,21.0,21.0,0.0,0.7571774,0.0,5.0,1.0,106408.0,34.240917,-84.838188,259,27,0.10424710424710425
0500000US13017,13017.0,Ben Hill,Georgia,GA,75.0,48.0,5.0,5.0,0.0,0.2183219,27.0,2.0,1.0,16787.0,31.740772,-83.14719699999998,20,0,0.0
0500000US13019,13019.0,Berrien,Georgia,GA,63.0,51.0,9.0,9.0,0.0,0.04276121,12.0,1.0,1.0,19252.0,31.28865200000001,-83.22787,10,0,0.0
0500000US13021,13021.0,Bibb,Georgia,GA,1184.0,992.0,126.0,126.0,77.0,0.6734257833333332,192.0,25.0,6.0,153095.0,32.808845,-83.694194,224,4,0.017857142857142856
0500000US13023,13023.0,Bleckley,Georgia,GA,25.0,15.0,3.0,3.0,0.0,0.8624656999999999,10.0,1.0,1.0,12838.0,32.435403,-83.331717,6,0,0.0
0500000US13027,13027.0,Brooks,Georgia,GA,25.0,25.0,4.0,4.0,0.0,0.6220274,0.0,1.0,1.0,15513.0,30.822934000000004,-83.581905,36,6,0.16666666666666666
0500000US13031,13031.0,Bulloch,Georgia,GA,195.0,182.0,31.0,31.0,0.0,0.3082385,13.0,4.0,2.0,77296.0,32.391711,-81.74402099999998,33,2,0.06060606060606061
0500000US13033,13033.0,Burke,Georgia,GA,40.0,40.0,7.0,7.0,0.0,0.07047945,0.0,1.0,1.0,22423.0,33.060181,-82.000164,53,3,0.05660377358490566
0500000US13035,13035.0,Butts,Georgia,GA,25.0,25.0,4.0,4.0,0.0,0.5220821999999999,0.0,2.0,1.0,24193.0,33.290355,-83.958221,125,2,0.016
0500000US13039,13039.0,Camden,Georgia,GA,40.0,40.0,5.0,5.0,0.0,0.454863,0.0,2.0,1.0,53677.0,30.913358,-81.64201899999998,28,0,0.0
0500000US13043,13043.0,Candler,Georgia,GA,25.0,25.0,6.0,6.0,0.0,0.3110137,0.0,2.0,1.0,10836.0,32.40395,-82.07126600000002,7,0,0.0
0500000US13045,13045.0,Carroll,Georgia,GA,326.0,197.0,28.0,28.0,0.0,0.7470852499999999,129.0,11.0,2.0,118121.0,33.582237,-85.080527,313,11,0.03514376996805112
0500000US13047,13047.0,Catoosa,Georgia,GA,179.0,36.0,6.0,6.0,0.0,0.1076865,143.0,2.0,1.0,67420.0,34.900218,-85.139386,45,0,0.0
0500000US13051,13051.0,Chatham,Georgia,GA,1569.0,1304.0,89.0,89.0,74.0,0.6605407666666666,265.0,42.0,9.0,289195.0,31.980404,-81.085184,193,7,0.03626943005181347
0500000US13053,13053.0,Chattahoochee,Georgia,GA,250.0,250.0,0.0,0.0,0.0,0.0,0.0,0.0,1.0,10684.0,32.347445,-84.788021,8,0,0.0
0500000US13057,13057.0,Cherokee,Georgia,GA,126.0,114.0,20.0,20.0,0.0,1.0,12.0,6.0,1.0,254149.0,34.244316999999995,-84.47505699999998,340,10,0.029411764705882353
0500000US13059,13059.0,Clarke,Georgia,GA,597.0,564.0,99.0,99.0,20.0,0.6506232000000001,33.0,16.0,3.0,127330.0,33.952185,-83.367152,118,13,0.11016949152542373
0500000US13063,13063.0,Clayton,Georgia,GA,538.0,441.0,35.0,35.0,0.0,0.7276764,97.0,7.0,3.0,289615.0,33.542686,-84.35557299999998,549,21,0.03825136612021858
0500000US13065,13065.0,Clinch,Georgia,GA,25.0,15.0,3.0,3.0,0.0,0.4679452,10.0,1.0,1.0,6648.0,30.917653,-82.702614,7,0,0.0
0500000US13067,13067.0,Cobb,Georgia,GA,1346.0,1243.0,98.0,98.0,49.0,0.6699970749999999,103.0,67.0,4.0,756865.0,33.93993,-84.574112,1272,63,0.049528301886792456
0500000US13069,13069.0,Coffee,Georgia,GA,88.0,86.0,10.0,10.0,0.0,0.5279706999999999,2.0,3.0,1.0,43093.0,31.54924500000001,-82.84494000000002,84,4,0.047619047619047616
0500000US13071,13071.0,Colquitt,Georgia,GA,168.0,127.0,16.0,16.0,0.0,0.79846985,41.0,3.0,2.0,45592.0,31.189707,-83.769773,158,6,0.0379746835443038
0500000US13075,13075.0,Cook,Georgia,GA,33.0,33.0,6.0,6.0,0.0,0.08875052,0.0,0.0,1.0,17162.0,31.152516,-83.429445,15,1,0.06666666666666667
0500000US13077,13077.0,Coweta,Georgia,GA,254.0,250.0,23.0,23.0,10.0,0.6967062333333333,4.0,9.0,3.0,145864.0,33.352897,-84.76213800000002,169,4,0.023668639053254437
0500000US13081,13081.0,Crisp,Georgia,GA,73.0,65.0,16.0,16.0,0.0,0.517471,8.0,3.0,1.0,22601.0,31.915148,-83.75353100000002,130,2,0.015384615384615385
0500000US13083,13083.0,Dade,Georgia,GA,36.0,36.0,6.0,6.0,0.0,0.0,0.0,0.0,1.0,16226.0,34.852424,-85.506201,15,1,0.06666666666666667
0500000US13087,13087.0,Decatur,Georgia,GA,80.0,80.0,10.0,10.0,0.0,0.1969521,0.0,2.0,1.0,26575.0,30.880643,-84.58389,62,1,0.016129032258064516
0500000US13089,13089.0,DeKalb,Georgia,GA,2368.0,1957.0,307.0,307.0,42.0,0.5636641090909091,411.0,36.0,11.0,756558.0,33.770661,-84.226343,1609,31,0.019266625233064015
0500000US13091,13091.0,Dodge,Georgia,GA,94.0,40.0,6.0,6.0,0.0,0.3455479,54.0,2.0,1.0,20705.0,32.164369,-83.167866,21,0,0.0
0500000US13095,13095.0,Dougherty,Georgia,GA,691.0,409.0,50.0,50.0,27.0,0.599089,282.0,9.0,1.0,91243.0,31.532588,-84.20904,1479,106,0.07167004732927654
0500000US13097,13097.0,Douglas,Georgia,GA,108.0,102.0,8.0,8.0,0.0,0.6980661,6.0,10.0,1.0,145331.0,33.701242,-84.767314,259,8,0.03088803088803089
0500000US13099,13099.0,Early,Georgia,GA,25.0,15.0,3.0,3.0,0.0,0.6317364999999999,10.0,1.0,1.0,10247.0,31.324191,-84.906723,184,12,0.06521739130434782
0500000US13103,13103.0,Effingham,Georgia,GA,25.0,25.0,4.0,4.0,0.0,0.2656438,0.0,2.0,1.0,62190.0,32.36168,-81.343372,30,1,0.03333333333333333
0500000US13105,13105.0,Elbert,Georgia,GA,25.0,52.0,4.0,4.0,0.0,0.14330869999999998,-27.0,2.0,1.0,19120.0,34.116413,-82.841909,10,0,0.0
0500000US13107,13107.0,Emanuel,Georgia,GA,72.0,45.0,8.0,8.0,0.0,0.1993912,27.0,2.0,1.0,22612.0,32.5911,-82.299763,15,0,0.0
0500000US13109,13109.0,Evans,Georgia,GA,49.0,49.0,9.0,9.0,0.0,0.07637686,0.0,2.0,1.0,10721.0,32.153083,-81.890153,4,0,0.0
0500000US13111,13111.0,Fannin,Georgia,GA,50.0,50.0,5.0,5.0,0.0,0.17747939999999998,0.0,2.0,1.0,25964.0,34.866543,-84.31733100000002,20,1,0.05
0500000US13113,13113.0,Fayette,Georgia,GA,282.0,221.0,66.0,66.0,20.0,0.8128879999999999,61.0,8.0,1.0,113459.0,33.412717,-84.493941,146,8,0.0547945205479452
0500000US13115,13115.0,Floyd,Georgia,GA,514.0,435.0,42.0,42.0,0.0,0.7021187999999999,79.0,18.0,2.0,97927.0,34.263692,-85.213685,128,9,0.0703125
0500000US13117,13117.0,Forsyth,Georgia,GA,304.0,304.0,24.0,24.0,0.0,0.6773079000000001,0.0,7.0,1.0,236612.0,34.225143,-84.127408,227,8,0.03524229074889868
0500000US13119,13119.0,Franklin,Georgia,GA,56.0,56.0,8.0,8.0,0.0,0.3206458,0.0,2.0,1.0,23023.0,34.375266,-83.227532,13,0,0.0
0500000US13121,13121.0,Fulton,Georgia,GA,4682.0,3805.0,656.0,656.0,154.0,0.5805878785714286,877.0,88.0,14.0,1050114.0,33.79003400000001,-84.468182,2831,85,0.03002472624514306
0500000US13127,13127.0,Glynn,Georgia,GA,401.0,401.0,12.0,12.0,0.0,0.5475776,0.0,8.0,2.0,85219.0,31.21271,-81.49645,51,0,0.0
0500000US13129,13129.0,Gordon,Georgia,GA,69.0,69.0,8.0,8.0,0.0,0.6426444,0.0,2.0,1.0,57685.0,34.509667,-84.873862,70,8,0.11428571428571428
0500000US13131,13131.0,Grady,Georgia,GA,60.0,46.0,4.0,4.0,0.0,0.35616440000000005,14.0,2.0,1.0,24748.0,30.87590800000001,-84.24508,40,2,0.05
0500000US13133,13133.0,Greene,Georgia,GA,50.0,50.0,8.0,8.0,0.0,0.46893149999999995,0.0,4.0,2.0,17698.0,33.57674,-83.166613,50,1,0.02
0500000US13135,13135.0,Gwinnett,Georgia,GA,848.0,945.0,70.0,70.0,42.0,0.578762325,-97.0,23.0,4.0,927781.0,33.959146000000004,-84.023087,1273,46,0.03613511390416339
0500000US13137,13137.0,Habersham,Georgia,GA,53.0,53.0,4.0,4.0,0.0,0.3001292,0.0,2.0,1.0,45388.0,34.634392,-83.525875,130,3,0.023076923076923078
0500000US13139,13139.0,Hall,Georgia,GA,657.0,545.0,85.0,85.0,0.0,0.8019907,112.0,20.0,1.0,202148.0,34.317569,-83.8185,907,9,0.009922822491730982
0500000US13143,13143.0,Haralson,Georgia,GA,25.0,15.0,3.0,3.0,0.0,0.8233790000000001,10.0,2.0,1.0,29533.0,33.795165000000004,-85.220063,25,1,0.04
0500000US13151,13151.0,Henry,Georgia,GA,215.0,215.0,33.0,33.0,16.0,0.7400326999999999,0.0,10.0,1.0,230220.0,33.452946999999995,-84.154021,386,11,0.02849740932642487
0500000US13153,13153.0,Houston,Georgia,GA,276.0,276.0,36.0,36.0,0.0,0.5850706999999999,0.0,11.0,2.0,155469.0,32.458287,-83.662522,190,13,0.06842105263157895
0500000US13155,13155.0,Irwin,Georgia,GA,34.0,34.0,6.0,6.0,0.0,0.1204674,0.0,2.0,1.0,9398.0,31.604306,-83.27703699999998,15,1,0.06666666666666667
0500000US13157,13157.0,Jackson,Georgia,GA,90.0,28.0,5.0,5.0,0.0,0.1227984,62.0,2.0,1.0,70422.0,34.130905,-83.562557,63,1,0.015873015873015872
0500000US13159,13159.0,Jasper,Georgia,GA,17.0,12.0,2.0,2.0,0.0,0.313242,5.0,0.0,1.0,14040.0,33.316981,-83.689151,18,0,0.0
0500000US13161,13161.0,Jeff Davis,Georgia,GA,35.0,25.0,4.0,4.0,0.0,0.2923836,10.0,2.0,1.0,15029.0,31.811615000000003,-82.636825,7,1,0.14285714285714285
0500000US13163,13163.0,Jefferson,Georgia,GA,37.0,37.0,6.0,6.0,0.0,0.1250648,0.0,2.0,1.0,15430.0,33.058176,-82.420004,11,1,0.09090909090909091
0500000US13165,13165.0,Jenkins,Georgia,GA,25.0,15.0,3.0,3.0,0.0,0.06958904,10.0,1.0,1.0,8683.0,32.794563000000004,-81.971524,14,1,0.07142857142857142
0500000US13173,13173.0,Lanier,Georgia,GA,25.0,25.0,4.0,4.0,0.0,0.2598356,0.0,1.0,1.0,10340.0,31.038197,-83.063164,7,1,0.14285714285714285
0500000US13175,13175.0,Laurens,Georgia,GA,190.0,145.0,16.0,16.0,0.0,0.268068,45.0,6.0,2.0,47325.0,32.39322,-82.926317,44,1,0.022727272727272728
0500000US13179,13179.0,Liberty,Georgia,GA,64.0,64.0,4.0,4.0,0.0,0.14986300000000002,0.0,2.0,2.0,61497.0,31.807458,-81.457871,34,0,0.0
0500000US13185,13185.0,Lowndes,Georgia,GA,443.0,377.0,48.0,48.0,0.0,0.7595372499999999,66.0,9.0,2.0,116321.0,30.833145,-83.26899499999998,122,4,0.03278688524590164
0500000US13187,13187.0,Lumpkin,Georgia,GA,52.0,0.0,32.0,32.0,0.0,0.0,52.0,0.0,1.0,32955.0,34.56814,-83.998925,26,0,0.0
0500000US13189,13189.0,McDuffie,Georgia,GA,25.0,25.0,4.0,4.0,0.0,0.5899177999999999,0.0,2.0,1.0,21531.0,33.479623,-82.47873299999998,37,4,0.10810810810810811
0500000US13193,13193.0,Macon,Georgia,GA,49.0,22.0,4.0,4.0,0.0,0.02428393,27.0,0.0,1.0,13143.0,32.362686,-84.051231,59,2,0.03389830508474576
0500000US13199,13199.0,Meriwether,Georgia,GA,109.0,109.0,11.0,11.0,0.0,0.4080456,0.0,6.0,3.0,21068.0,33.029267,-84.667058,48,0,0.0
0500000US13201,13201.0,Miller,Georgia,GA,25.0,25.0,4.0,4.0,0.0,0.8419726000000001,0.0,2.0,1.0,5686.0,31.162931,-84.730398,24,0,0.0
0500000US13205,13205.0,Mitchell,Georgia,GA,23.0,25.0,4.0,4.0,0.0,0.6878904,-2.0,1.0,1.0,22192.0,31.228997,-84.192038,280,23,0.08214285714285714
0500000US13207,13207.0,Monroe,Georgia,GA,25.0,25.0,5.0,5.0,0.0,0.5014794,0.0,2.0,1.0,27520.0,33.017435,-83.922938,15,1,0.06666666666666667
0500000US13211,13211.0,Morgan,Georgia,GA,25.0,25.0,4.0,4.0,0.0,0.5551781,0.0,1.0,1.0,18853.0,33.598696000000004,-83.49943499999998,23,0,0.0
0500000US13213,13213.0,Murray,Georgia,GA,42.0,29.0,5.0,5.0,0.0,0.1487955,13.0,1.0,1.0,39921.0,34.797096999999994,-84.73799,19,0,0.0
0500000US13215,13215.0,Muscogee,Georgia,GA,1167.0,794.0,69.0,69.0,39.0,0.57217474,373.0,29.0,5.0,194160.0,32.510197,-84.874946,244,4,0.01639344262295082
0500000US13217,13217.0,Newton,Georgia,GA,101.0,94.0,10.0,10.0,6.0,0.4860099,7.0,4.0,1.0,109541.0,33.544041,-83.855184,146,5,0.03424657534246575
0500000US13223,13223.0,Paulding,Georgia,GA,112.0,112.0,8.0,8.0,0.0,0.6907044999999999,0.0,9.0,1.0,164044.0,33.92103,-84.86716899999998,145,7,0.04827586206896552
0500000US13225,13225.0,Peach,Georgia,GA,25.0,25.0,4.0,4.0,0.0,0.7768767,0.0,2.0,1.0,27297.0,32.571324,-83.831978,35,2,0.05714285714285714
0500000US13227,13227.0,Pickens,Georgia,GA,52.0,52.0,6.0,6.0,0.0,0.6991043,0.0,3.0,1.0,31980.0,34.456746,-84.490351,18,2,0.1111111111111111
0500000US13233,13233.0,Polk,Georgia,GA,25.0,25.0,4.0,4.0,0.0,0.8453699,0.0,2.0,1.0,42470.0,33.996015,-85.188338,36,0,0.0
0500000US13235,13235.0,Pulaski,Georgia,GA,49.0,55.0,6.0,6.0,0.0,0.1580075,-6.0,2.0,1.0,11069.0,32.238803000000004,-83.48184499999998,18,1,0.05555555555555555
0500000US13241,13241.0,Rabun,Georgia,GA,25.0,25.0,4.0,4.0,0.0,0.2376986,0.0,2.0,1.0,16867.0,34.883934,-83.40486999999997,9,0,0.0
0500000US13243,13243.0,Randolph,Georgia,GA,25.0,25.0,4.0,4.0,0.0,0.14761639999999998,0.0,1.0,1.0,6833.0,31.762651,-84.75231099999998,148,17,0.11486486486486487
0500000US13245,13245.0,Richmond,Georgia,GA,2824.0,1850.0,402.0,402.0,74.0,0.4636257111111111,974.0,61.0,9.0,201554.0,33.361486,-82.074998,313,13,0.04153354632587859
0500000US13247,13247.0,Rockdale,Georgia,GA,138.0,138.0,16.0,16.0,0.0,0.7580686,0.0,5.0,1.0,90594.0,33.652081,-84.02637,144,6,0.041666666666666664
0500000US13251,13251.0,Screven,Georgia,GA,25.0,25.0,4.0,4.0,0.0,0.21665749999999998,0.0,1.0,1.0,13938.0,32.744751,-81.61758499999998,14,1,0.07142857142857142
0500000US13253,13253.0,Seminole,Georgia,GA,65.0,45.0,8.0,8.0,0.0,0.2298935,20.0,1.0,1.0,8315.0,30.93396,-84.867685,27,2,0.07407407407407407
0500000US13255,13255.0,Spalding,Georgia,GA,160.0,160.0,22.0,22.0,0.0,0.5782020999999999,0.0,12.0,1.0,66100.0,33.262348,-84.28490500000002,136,8,0.058823529411764705
0500000US13257,13257.0,Stephens,Georgia,GA,96.0,74.0,6.0,6.0,0.0,0.2133284,22.0,2.0,1.0,26035.0,34.552914,-83.290216,42,1,0.023809523809523808
0500000US13261,13261.0,Sumter,Georgia,GA,76.0,54.0,9.0,9.0,0.0,0.5396246,22.0,3.0,1.0,29733.0,32.042266,-84.20429399999998,341,20,0.05865102639296188
0500000US13267,13267.0,Tattnall,Georgia,GA,25.0,25.0,4.0,4.0,0.0,0.2903014,0.0,2.0,1.0,25391.0,32.043768,-82.059208,6,0,0.0
0500000US13275,13275.0,Thomas,Georgia,GA,264.0,226.0,35.0,35.0,0.0,0.6503939999999999,38.0,7.0,1.0,44448.0,30.864619,-83.919815,148,14,0.0945945945945946
0500000US13277,13277.0,Tift,Georgia,GA,241.0,181.0,20.0,20.0,0.0,0.6205858,60.0,4.0,1.0,40571.0,31.457003000000004,-83.525931,93,4,0.043010752688172046
0500000US13279,13279.0,Toombs,Georgia,GA,57.0,52.0,8.0,8.0,0.0,0.7694941999999999,5.0,3.0,1.0,26887.0,32.117812,-82.330626,21,3,0.14285714285714285
0500000US13281,13281.0,Towns,Georgia,GA,25.0,25.0,4.0,4.0,0.0,0.3263562,0.0,1.0,1.0,11852.0,34.902529,-83.732264,19,0,0.0
0500000US13285,13285.0,Troup,Georgia,GA,276.0,276.0,20.0,20.0,0.0,0.2930415,0.0,7.0,1.0,70034.0,33.034482000000004,-85.02835999999998,109,4,0.03669724770642202
0500000US13291,13291.0,Union,Georgia,GA,45.0,39.0,5.0,5.0,0.0,0.5016509,6.0,2.0,1.0,24001.0,34.833333,-83.989257,18,1,0.05555555555555555
0500000US13293,13293.0,Upson,Georgia,GA,115.0,87.0,28.0,28.0,0.0,0.37228779999999995,28.0,2.0,1.0,26215.0,32.881837,-84.292283,185,12,0.06486486486486487
0500000US13297,13297.0,Walton,Georgia,GA,165.0,164.0,7.0,7.0,0.0,0.52654885,1.0,3.0,2.0,93503.0,33.783887,-83.731829,73,3,0.0410958904109589
0500000US13299,13299.0,Ware,Georgia,GA,231.0,134.0,10.0,10.0,6.0,0.5187077999999999,97.0,8.0,1.0,35680.0,31.050881,-82.42150699999998,95,7,0.07368421052631578
0500000US13303,13303.0,Washington,Georgia,GA,56.0,56.0,10.0,10.0,0.0,0.141047,0.0,2.0,1.0,20386.0,32.971843,-82.798112,28,1,0.03571428571428571
0500000US13305,13305.0,Wayne,Georgia,GA,88.0,88.0,12.0,12.0,0.0,0.3786737,0.0,2.0,1.0,29808.0,31.547845,-81.912376,10,0,0.0
0500000US13313,13313.0,Whitfield,Georgia,GA,282.0,246.0,34.0,34.0,0.0,0.4134648,36.0,8.0,1.0,104062.0,34.801726,-84.968541,53,4,0.07547169811320754
0500000US13317,13317.0,Wilkes,Georgia,GA,25.0,25.0,4.0,4.0,0.0,0.3903562,0.0,1.0,1.0,9876.0,33.779031,-82.74792099999998,21,0,0.0
0500000US13321,13321.0,Worth,Georgia,GA,25.0,25.0,4.0,4.0,0.0,0.5300822,0.0,2.0,1.0,20299.0,31.551773,-83.84996,142,9,0.06338028169014084
0500000US16001,16001.0,Ada,Idaho,ID,1305.0,1195.0,97.0,97.0,110.0,0.35539121111111105,110.0,24.0,9.0,469966.0,43.451477,-116.244376,597,14,0.023450586264656615
0500000US16005,16005.0,Bannock,Idaho,ID,205.0,137.0,20.0,20.0,16.0,0.5851814999999999,68.0,4.0,1.0,87138.0,42.69292100000001,-112.228982,5,0,0.0
0500000US16011,16011.0,Bingham,Idaho,ID,153.0,131.0,6.0,6.0,0.0,0.5028021333333333,22.0,2.0,3.0,46236.0,43.216357,-112.399206,3,0,0.0
0500000US16013,16013.0,Blaine,Idaho,ID,25.0,25.0,4.0,4.0,0.0,0.3025753,0.0,1.0,1.0,22601.0,43.394192,-113.955371,477,5,0.010482180293501049
0500000US16017,16017.0,Bonner,Idaho,ID,25.0,25.0,4.0,4.0,0.0,0.4503014,0.0,2.0,1.0,44727.0,48.316796,-116.612364,4,0,0.0
0500000US16019,16019.0,Bonneville,Idaho,ID,420.0,267.0,74.0,74.0,26.0,0.2882409,153.0,9.0,3.0,116854.0,43.39517100000001,-111.621878,16,0,0.0
0500000US16021,16021.0,Boundary,Idaho,ID,20.0,20.0,3.0,3.0,0.0,0.1387671,0.0,0.0,1.0,11948.0,48.773131,-116.524668,1,0,0.0
0500000US16027,16027.0,Canyon,Idaho,ID,343.0,282.0,41.0,41.0,12.0,0.4241377333333333,61.0,9.0,3.0,223499.0,43.625796,-116.709058,205,6,0.02926829268292683
0500000US16029,16029.0,Caribou,Idaho,ID,25.0,25.0,4.0,4.0,0.0,0.1220822,0.0,1.0,1.0,7060.0,42.786072,-111.544273,1,0,0.0
0500000US16031,16031.0,Cassia,Idaho,ID,25.0,31.0,6.0,6.0,0.0,0.3379607,-6.0,2.0,1.0,23864.0,42.282313,-113.626328,12,1,0.08333333333333333
0500000US16039,16039.0,Elmore,Idaho,ID,25.0,21.0,4.0,4.0,0.0,0.4178734000000001,4.0,1.0,1.0,27259.0,43.394698,-115.471205,26,1,0.038461538461538464
0500000US16045,16045.0,Gem,Idaho,ID,16.0,13.0,2.0,2.0,0.0,0.2004215,3.0,0.0,1.0,17634.0,44.061473,-116.398784,9,0,0.0
0500000US16047,16047.0,Gooding,Idaho,ID,18.0,16.0,3.0,3.0,0.0,0.4275685,2.0,2.0,1.0,15196.0,42.973185,-114.82142,7,0,0.0
0500000US16049,16049.0,Idaho,Idaho,ID,41.0,40.0,7.0,7.0,0.0,0.2641461,1.0,1.0,2.0,16513.0,45.849644,-115.467337,3,0,0.0
0500000US16053,16053.0,Jerome,Idaho,ID,25.0,25.0,4.0,4.0,0.0,0.23572600000000002,0.0,1.0,1.0,24015.0,42.691395,-114.262086,36,2,0.05555555555555555
0500000US16055,16055.0,Kootenai,Idaho,ID,434.0,401.0,76.0,76.0,14.0,0.58111275,33.0,12.0,4.0,161505.0,47.675966,-116.695922,54,0,0.0
0500000US16057,16057.0,Latah,Idaho,ID,25.0,25.0,3.0,3.0,0.0,0.4920548,0.0,2.0,1.0,40134.0,46.81892,-116.730974,4,0,0.0
0500000US16065,16065.0,Madison,Idaho,ID,69.0,67.0,4.0,4.0,14.0,0.28951140000000003,2.0,2.0,1.0,39304.0,43.788614,-111.656993,6,0,0.0
0500000US16067,16067.0,Minidoka,Idaho,ID,25.0,16.0,3.0,3.0,0.0,0.3876712,9.0,1.0,1.0,20825.0,42.857211,-113.63984,7,0,0.0
0500000US16069,16069.0,Nez Perce,Idaho,ID,145.0,110.0,9.0,9.0,0.0,0.3489521,35.0,4.0,1.0,40408.0,46.333791,-116.760909,35,13,0.37142857142857144
0500000US16077,16077.0,Power,Idaho,ID,10.0,10.0,2.0,2.0,0.0,0.1663014,0.0,0.0,1.0,7768.0,42.694126,-112.844407,2,0,0.0
0500000US16081,16081.0,Teton,Idaho,ID,13.0,13.0,2.0,2.0,0.0,0.10284510000000001,0.0,1.0,1.0,11640.0,43.760994,-111.211765,7,0,0.0
0500000US16083,16083.0,Twin Falls,Idaho,ID,224.0,186.0,30.0,30.0,18.0,0.5407137,38.0,4.0,1.0,86081.0,42.35230900000001,-114.66563899999998,122,11,0.09016393442622951
0500000US16085,16085.0,Valley,Idaho,ID,25.0,23.0,4.0,4.0,0.0,0.151609565,2.0,1.0,2.0,11041.0,44.85596,-115.618061,3,0,0.0
0500000US16087,16087.0,Washington,Idaho,ID,25.0,19.0,3.0,3.0,0.0,0.132372,6.0,1.0,1.0,10161.0,44.448223,-116.797792,1,0,0.0
0500000US17001,17001.0,Adams,Illinois,IL,307.0,248.0,25.0,25.0,0.0,0.5396885,59.0,10.0,1.0,65691.0,39.986052,-91.194961,34,0,0.0
0500000US17005,17005.0,Bond,Illinois,IL,42.0,32.0,6.0,6.0,0.0,0.3174658,10.0,2.0,1.0,16630.0,38.885924,-89.436592,4,1,0.25
0500000US17011,17011.0,Bureau,Illinois,IL,94.0,69.0,9.0,9.0,0.0,0.3235841,25.0,3.0,2.0,32993.0,41.401304,-89.528377,8,0,0.0
0500000US17019,17019.0,Champaign,Illinois,IL,680.0,637.0,39.0,39.0,25.0,0.6658622666666666,43.0,13.0,3.0,209983.0,40.138985,-88.196975,97,4,0.041237113402061855
0500000US17021,17021.0,Christian,Illinois,IL,47.0,47.0,8.0,8.0,0.0,0.38558405,0.0,4.0,2.0,32661.0,39.545524,-89.279593,27,5,0.18518518518518517
0500000US17025,17025.0,Clay,Illinois,IL,20.0,20.0,3.0,3.0,0.0,0.309863,0.0,2.0,1.0,13253.0,38.746819,-88.482325,2,0,0.0
0500000US17027,17027.0,Clinton,Illinois,IL,70.0,46.0,8.0,8.0,0.0,0.2090846,24.0,2.0,1.0,37639.0,38.606295,-89.42622800000002,49,0,0.0
0500000US17029,17029.0,Coles,Illinois,IL,149.0,82.0,14.0,14.0,0.0,0.5960909000000001,67.0,3.0,1.0,50885.0,39.51368,-88.220782,18,0,0.0
0500000US17031,17031.0,Cook,Illinois,IL,18546.0,15382.0,2021.0,2021.0,651.0,0.501626263235294,3164.0,455.0,68.0,5180493.0,41.894294,-87.645455,24737,1072,0.043335893600679146
0500000US17033,17033.0,Crawford,Illinois,IL,63.0,25.0,4.0,4.0,0.0,0.3596712,38.0,2.0,1.0,18807.0,39.002787,-87.76061899999998,8,0,0.0
0500000US17037,17037.0,DeKalb,Illinois,IL,192.0,192.0,27.0,27.0,0.0,0.38369786666666666,0.0,9.0,3.0,104143.0,41.894612,-88.768991,56,1,0.017857142857142856
0500000US17039,17039.0,De Witt,Illinois,IL,25.0,15.0,3.0,3.0,0.0,0.08127854,10.0,0.0,1.0,15769.0,40.181499,-88.901853,3,0,0.0
0500000US17043,17043.0,DuPage,Illinois,IL,1928.0,1723.0,219.0,219.0,45.0,0.6883410124999999,205.0,50.0,8.0,928589.0,41.852058,-88.086039,1947,103,0.05290190035952748
0500000US17049,17049.0,Effingham,Illinois,IL,133.0,133.0,10.0,10.0,0.0,0.2873828,0.0,2.0,1.0,34208.0,39.047945,-88.592849,5,1,0.2
0500000US17051,17051.0,Fayette,Illinois,IL,110.0,29.0,4.0,4.0,0.0,0.346411,81.0,1.0,1.0,21416.0,39.001125,-89.017923,15,2,0.13333333333333333
0500000US17053,17053.0,Ford,Illinois,IL,41.0,25.0,2.0,2.0,0.0,0.4010959,16.0,2.0,1.0,13264.0,40.596539,-88.224588,6,1,0.16666666666666666
0500000US17055,17055.0,Franklin,Illinois,IL,16.0,16.0,3.0,3.0,0.0,0.09238356,0.0,2.0,1.0,38701.0,37.991852,-88.926321,8,0,0.0
0500000US17057,17057.0,Fulton,Illinois,IL,87.0,43.0,5.0,5.0,0.0,0.4484231,44.0,2.0,1.0,34844.0,40.46524,-90.202269,2,0,0.0
0500000US17061,17061.0,Greene,Illinois,IL,25.0,25.0,4.0,4.0,0.0,0.1140822,0.0,0.0,1.0,13044.0,39.355439,-90.387682,2,0,0.0
0500000US17063,17063.0,Grundy,Illinois,IL,89.0,89.0,8.0,8.0,0.0,0.4224103,0.0,2.0,1.0,50972.0,41.29241,-88.401054,26,0,0.0
0500000US17065,17065.0,Hamilton,Illinois,IL,25.0,25.0,4.0,4.0,0.0,0.3496986,0.0,2.0,1.0,8163.0,38.085227,-88.539009,2,0,0.0
0500000US17067,17067.0,Hancock,Illinois,IL,18.0,18.0,3.0,3.0,0.0,0.32389650000000003,0.0,1.0,1.0,17844.0,40.401318,-91.168801,4,0,0.0
0500000US17069,17069.0,Hardin,Illinois,IL,25.0,25.0,4.0,4.0,0.0,0.2840548,0.0,0.0,1.0,3910.0,37.51785200000001,-88.266148,1,0,0.0
0500000US17073,17073.0,Henry,Illinois,IL,86.0,50.0,7.0,7.0,0.0,0.2653699,36.0,3.0,2.0,49090.0,41.35002100000001,-90.130838,32,0,0.0
0500000US17075,17075.0,Iroquois,Illinois,IL,25.0,25.0,5.0,5.0,0.0,0.1524384,0.0,2.0,1.0,27604.0,40.748867,-87.833601,14,0,0.0
0500000US17077,17077.0,Jackson,Illinois,IL,179.0,179.0,25.0,25.0,13.0,0.53906155,0.0,6.0,2.0,57419.0,37.786096,-89.381212,50,6,0.12
0500000US17081,17081.0,Jefferson,Illinois,IL,181.0,171.0,22.0,22.0,0.0,0.3888264499999999,10.0,10.0,2.0,37820.0,38.30078,-88.92421,75,1,0.013333333333333334
0500000US17083,17083.0,Jersey,Illinois,IL,65.0,46.0,4.0,4.0,0.0,0.15211429999999998,19.0,2.0,1.0,21847.0,39.080195,-90.361385,10,0,0.0
0500000US17085,17085.0,Jo Daviess,Illinois,IL,25.0,18.0,3.0,3.0,0.0,0.25479450000000003,7.0,0.0,1.0,21366.0,42.362391,-90.21147,12,0,0.0
0500000US17089,17089.0,Kane,Illinois,IL,1483.0,1306.0,120.0,120.0,13.0,0.5647026166666667,177.0,32.0,6.0,534216.0,41.939594,-88.42804,764,37,0.04842931937172775
0500000US17091,17091.0,Kankakee,Illinois,IL,500.0,460.0,27.0,27.0,0.0,0.4019585,40.0,20.0,2.0,110024.0,41.13951,-87.86111700000002,285,19,0.06666666666666667
0500000US17095,17095.0,Knox,Illinois,IL,254.0,177.0,18.0,18.0,0.0,0.29327965,77.0,7.0,2.0,50112.0,40.930945,-90.213792,16,0,0.0
0500000US17097,17097.0,Lake,Illinois,IL,1019.0,826.0,109.0,109.0,0.0,0.3922139571428572,193.0,26.0,7.0,700832.0,42.326441,-87.435976,2379,89,0.03741067675493905
0500000US17099,17099.0,LaSalle,Illinois,IL,171.0,164.0,13.0,13.0,0.0,0.3446587333333333,7.0,5.0,3.0,109430.0,41.343341,-88.885931,38,2,0.05263157894736842
0500000US17101,17101.0,Lawrence,Illinois,IL,25.0,25.0,4.0,4.0,0.0,0.2183014,0.0,1.0,1.0,15765.0,38.718954,-87.730221,2,0,0.0
0500000US17103,17103.0,Lee,Illinois,IL,80.0,66.0,6.0,6.0,0.0,0.3259444,14.0,3.0,1.0,34223.0,41.747447,-89.299362,18,0,0.0
0500000US17105,17105.0,Livingston,Illinois,IL,42.0,42.0,5.0,5.0,0.0,0.4027397,0.0,2.0,1.0,35761.0,40.894376,-88.552852,18,1,0.05555555555555555
0500000US17107,17107.0,Logan,Illinois,IL,25.0,25.0,4.0,4.0,0.0,0.4291507000000001,0.0,2.0,1.0,28925.0,40.129277,-89.365309,5,0,0.0
0500000US17109,17109.0,McDonough,Illinois,IL,60.0,45.0,7.0,7.0,0.0,0.3105632,15.0,2.0,1.0,29955.0,40.45580800000001,-90.678954,4,0,0.0
0500000US17111,17111.0,McHenry,Illinois,IL,370.0,405.0,55.0,55.0,0.0,0.3029183333333333,-35.0,11.0,3.0,308570.0,42.324298,-88.45224499999998,399,22,0.05513784461152882
0500000US17113,17113.0,McLean,Illinois,IL,370.0,343.0,54.0,54.0,0.0,0.4590685000000001,27.0,6.0,2.0,172828.0,40.494559,-88.844539,86,3,0.03488372093023256
0500000US17115,17115.0,Macon,Illinois,IL,424.0,446.0,35.0,35.0,0.0,0.4711945,-22.0,13.0,2.0,104712.0,39.860237,-88.961529,93,10,0.10752688172043011
0500000US17117,17117.0,Macoupin,Illinois,IL,50.0,50.0,8.0,8.0,0.0,0.2212603,0.0,3.0,2.0,45313.0,39.265914,-89.92633000000002,24,0,0.0
0500000US17119,17119.0,Madison,Illinois,IL,953.0,677.0,62.0,62.0,0.0,0.4778940333333333,276.0,13.0,6.0,264461.0,38.82712,-89.900227,226,13,0.05752212389380531
0500000US17121,17121.0,Marion,Illinois,IL,149.0,107.0,13.0,13.0,0.0,0.3758323,42.0,6.0,2.0,37620.0,38.648236,-88.920362,25,0,0.0
0500000US17125,17125.0,Mason,Illinois,IL,25.0,25.0,4.0,4.0,0.0,0.1277808,0.0,1.0,1.0,13565.0,40.236993,-89.913575,6,0,0.0
0500000US17127,17127.0,Massac,Illinois,IL,25.0,25.0,4.0,4.0,0.0,0.4048219,0.0,2.0,1.0,14080.0,37.216119,-88.705658,4,0,0.0
0500000US17131,17131.0,Mercer,Illinois,IL,22.0,22.0,4.0,4.0,0.0,0.1273973,0.0,0.0,1.0,15601.0,41.205605,-90.74177,5,0,0.0
0500000US17135,17135.0,Montgomery,Illinois,IL,50.0,50.0,9.0,9.0,0.0,0.36915065,0.0,4.0,2.0,28601.0,39.228068,-89.47814100000002,21,1,0.047619047619047616
0500000US17137,17137.0,Morgan,Illinois,IL,131.0,93.0,9.0,9.0,0.0,0.3504108,38.0,3.0,1.0,33976.0,39.717668,-90.205005,14,1,0.07142857142857142
0500000US17141,17141.0,Ogle,Illinois,IL,16.0,17.0,4.0,4.0,0.0,0.17550359999999998,-1.0,1.0,1.0,50923.0,42.041884,-89.320176,71,1,0.014084507042253521
0500000US17143,17143.0,Peoria,Illinois,IL,1226.0,986.0,115.0,115.0,28.0,0.5538539000000001,240.0,26.0,4.0,180621.0,40.785972,-89.766993,46,2,0.043478260869565216
0500000US17145,17145.0,Perry,Illinois,IL,42.0,42.0,7.0,7.0,0.0,0.36861245,0.0,2.0,2.0,21174.0,38.084381,-89.368525,2,0,0.0
0500000US17147,17147.0,Piatt,Illinois,IL,16.0,16.0,3.0,3.0,0.0,0.3071918,0.0,1.0,1.0,16396.0,40.009033,-88.592355,7,0,0.0
0500000US17149,17149.0,Pike,Illinois,IL,35.0,25.0,4.0,4.0,0.0,0.1125479,10.0,1.0,1.0,15611.0,39.625106,-90.889034,1,0,0.0
0500000US17157,17157.0,Randolph,Illinois,IL,171.0,171.0,29.0,29.0,0.0,0.246575325,0.0,4.0,4.0,32106.0,38.05651500000001,-89.82121,63,1,0.015873015873015872
0500000US17159,17159.0,Richland,Illinois,IL,134.0,47.0,8.0,8.0,0.0,0.2677937,87.0,2.0,1.0,15763.0,38.712187,-88.085452,2,0,0.0
0500000US17161,17161.0,Rock Island,Illinois,IL,472.0,442.0,27.0,27.0,9.0,0.31573375,30.0,8.0,2.0,143477.0,41.468421,-90.572125,242,6,0.024793388429752067
0500000US17163,17163.0,St. Clair,Illinois,IL,736.0,556.0,63.0,63.0,0.0,0.50955655,180.0,19.0,4.0,261059.0,38.470198,-89.928546,316,19,0.060126582278481014
0500000US17165,17165.0,Saline,Illinois,IL,102.0,65.0,11.0,11.0,0.0,0.31459590000000004,37.0,3.0,2.0,23906.0,37.751508,-88.545024,3,0,0.0
0500000US17167,17167.0,Sangamon,Illinois,IL,1159.0,1004.0,93.0,93.0,43.0,0.587068575,155.0,26.0,4.0,195348.0,39.756867,-89.662425,69,5,0.07246376811594203
0500000US17169,17169.0,Schuyler,Illinois,IL,22.0,22.0,4.0,4.0,0.0,0.1674969,0.0,0.0,1.0,6907.0,40.156905,-90.613464,1,0,0.0
0500000US17173,17173.0,Shelby,Illinois,IL,30.0,30.0,5.0,5.0,0.0,0.126484,0.0,2.0,1.0,21741.0,39.384926,-88.798862,4,0,0.0
0500000US17177,17177.0,Stephenson,Illinois,IL,100.0,100.0,8.0,8.0,0.0,0.3736712,0.0,4.0,1.0,44753.0,42.349726,-89.665994,13,0,0.0
0500000US17179,17179.0,Tazewell,Illinois,IL,132.0,132.0,12.0,12.0,0.0,0.21324695,0.0,5.0,2.0,132328.0,40.508074,-89.51626,41,3,0.07317073170731707
0500000US17181,17181.0,Union,Illinois,IL,135.0,113.0,4.0,4.0,0.0,0.35964195,22.0,2.0,2.0,16841.0,37.485652,-89.244639,5,0,0.0
0500000US17183,17183.0,Vermilion,Illinois,IL,198.0,179.0,16.0,16.0,0.0,0.14509723333333333,19.0,6.0,3.0,76806.0,40.186754,-87.726778,10,0,0.0
0500000US17185,17185.0,Wabash,Illinois,IL,25.0,25.0,4.0,4.0,0.0,0.27550690000000005,0.0,1.0,1.0,11549.0,38.445821,-87.839167,2,0,0.0
0500000US17187,17187.0,Warren,Illinois,IL,23.0,23.0,4.0,4.0,0.0,0.17391299999999998,0.0,1.0,1.0,17032.0,40.850441,-90.620223,19,0,0.0
0500000US17189,17189.0,Washington,Illinois,IL,50.0,22.0,4.0,4.0,0.0,0.22727270000000002,28.0,1.0,1.0,13995.0,38.35314,-89.417187,7,0,0.0
0500000US17191,17191.0,Wayne,Illinois,IL,55.0,25.0,4.0,4.0,0.0,0.1838904,30.0,2.0,1.0,16332.0,38.431857,-88.43243000000002,1,0,0.0
0500000US17195,17195.0,Whiteside,Illinois,IL,123.0,121.0,13.0,13.0,0.0,0.36711015,2.0,2.0,2.0,55626.0,41.750673,-89.911005,45,3,0.06666666666666667
0500000US17197,17197.0,Will,Illinois,IL,1023.0,850.0,97.0,97.0,0.0,0.405044975,173.0,28.0,4.0,692310.0,41.448474,-87.97845600000002,1820,110,0.06043956043956044
0500000US17199,17199.0,Williamson,Illinois,IL,327.0,294.0,28.0,28.0,0.0,0.3252935,33.0,9.0,3.0,67056.0,37.730353,-88.930018,17,0,0.0
0500000US17201,17201.0,Winnebago,Illinois,IL,988.0,932.0,99.0,99.0,60.0,0.49599886,56.0,17.0,5.0,284081.0,42.33739600000001,-89.16120500000002,238,11,0.046218487394957986
0500000US17203,17203.0,Woodford,Illinois,IL,25.0,25.0,4.0,4.0,0.0,0.1324932,0.0,1.0,1.0,38463.0,40.789787,-89.210587,11,1,0.09090909090909091
0500000US18001,18001.0,Adams,Indiana,IN,25.0,25.0,4.0,4.0,0.0,0.6100821999999999,0.0,2.0,1.0,35636.0,40.745733,-84.93613,7,1,0.14285714285714285
0500000US18003,18003.0,Allen,Indiana,IN,1630.0,1630.0,235.0,235.0,101.0,0.3498876,0.0,38.0,12.0,375351.0,41.091909,-85.071791,343,22,0.0641399416909621
0500000US18005,18005.0,Bartholomew,Indiana,IN,225.0,225.0,17.0,17.0,0.0,0.39505290000000004,0.0,7.0,1.0,82753.0,39.205843,-85.897999,146,7,0.04794520547945205
0500000US18009,18009.0,Blackford,Indiana,IN,15.0,15.0,4.0,4.0,0.0,0.4056621,0.0,2.0,1.0,11930.0,40.472672,-85.32373,6,1,0.16666666666666666
0500000US18011,18011.0,Boone,Indiana,IN,68.0,68.0,8.0,8.0,0.0,0.2917808,0.0,2.0,1.0,66999.0,40.050892,-86.469014,166,18,0.10843373493975904
0500000US18017,18017.0,Cass,Indiana,IN,165.0,165.0,5.0,5.0,0.0,0.2744196,0.0,3.0,3.0,37955.0,40.753799,-86.355168,138,1,0.007246376811594203
0500000US18019,18019.0,Clark,Indiana,IN,253.0,253.0,22.0,22.0,0.0,0.64667645,0.0,5.0,2.0,117360.0,38.476217,-85.711122,188,11,0.05851063829787234
0500000US18021,18021.0,Clay,Indiana,IN,25.0,25.0,4.0,4.0,0.0,0.07824658,0.0,1.0,1.0,26170.0,39.393928,-87.115858,20,1,0.05
0500000US18023,18023.0,Clinton,Indiana,IN,25.0,25.0,5.0,5.0,0.0,0.1672329,0.0,2.0,1.0,32250.0,40.305944,-86.47756700000002,20,1,0.05
0500000US18027,18027.0,Daviess,Indiana,IN,42.0,42.0,5.0,5.0,0.0,0.27038490000000004,0.0,2.0,1.0,33147.0,38.69609000000001,-87.076943,38,6,0.15789473684210525
0500000US18029,18029.0,Dearborn,Indiana,IN,102.0,102.0,8.0,8.0,0.0,0.42083265,0.0,3.0,2.0,49568.0,39.14832,-84.97349799999998,72,5,0.06944444444444445
0500000US18031,18031.0,Decatur,Indiana,IN,25.0,25.0,4.0,4.0,0.0,0.4431781,0.0,2.0,1.0,26794.0,39.30598,-85.499831,178,21,0.11797752808988764
0500000US18033,18033.0,DeKalb,Indiana,IN,37.0,37.0,8.0,8.0,0.0,0.4235468,0.0,3.0,1.0,43226.0,41.401189,-85.000185,13,1,0.07692307692307693
0500000US18035,18035.0,Delaware,Indiana,IN,368.0,368.0,44.0,44.0,23.0,0.5787380999999999,0.0,26.0,3.0,114772.0,40.227543,-85.399262,121,9,0.0743801652892562
0500000US18037,18037.0,Dubois,Indiana,IN,111.0,111.0,26.0,26.0,0.0,0.32889050000000003,0.0,3.0,1.0,42565.0,38.373344,-86.873385,16,0,0.0
0500000US18039,18039.0,Elkhart,Indiana,IN,338.0,338.0,35.0,35.0,8.0,0.6087594,0.0,9.0,3.0,205560.0,41.600693,-85.863986,185,3,0.016216216216216217
0500000US18043,18043.0,Floyd,Indiana,IN,280.0,269.0,18.0,18.0,0.0,0.5520288000000001,11.0,8.0,3.0,77781.0,38.318081,-85.911847,149,9,0.06040268456375839
0500000US18049,18049.0,Fulton,Indiana,IN,25.0,25.0,4.0,4.0,0.0,0.3941918,0.0,2.0,1.0,20092.0,41.050384,-86.265006,6,0,0.0
0500000US18051,18051.0,Gibson,Indiana,IN,25.0,25.0,5.0,5.0,0.0,0.17534249999999998,0.0,1.0,1.0,33452.0,38.317398,-87.580523,5,0,0.0
0500000US18053,18053.0,Grant,Indiana,IN,347.0,347.0,19.0,19.0,0.0,0.3320054666666667,0.0,7.0,3.0,65936.0,40.515758,-85.654946,101,4,0.039603960396039604
0500000US18055,18055.0,Greene,Indiana,IN,25.0,25.0,5.0,5.0,0.0,0.2820822,0.0,2.0,1.0,32006.0,39.047147,-87.00477099999998,44,4,0.09090909090909091
0500000US18057,18057.0,Hamilton,Indiana,IN,610.0,610.0,90.0,90.0,44.0,0.259431125,0.0,19.0,8.0,330086.0,40.053507,-86.021713,624,41,0.06570512820512821
0500000US18059,18059.0,Hancock,Indiana,IN,73.0,73.0,26.0,26.0,0.0,0.18414555,0.0,4.0,2.0,76351.0,39.822529,-85.77315,151,7,0.046357615894039736
0500000US18061,18061.0,Harrison,Indiana,IN,25.0,25.0,4.0,4.0,0.0,0.5244932,0.0,2.0,1.0,40350.0,38.186454,-86.10376600000002,105,3,0.02857142857142857
0500000US18063,18063.0,Hendricks,Indiana,IN,260.0,260.0,28.0,28.0,0.0,0.51311705,0.0,10.0,2.0,167009.0,39.768963,-86.509908,518,20,0.03861003861003861
0500000US18065,18065.0,Henry,Indiana,IN,48.0,48.0,10.0,10.0,0.0,0.45450909999999994,0.0,3.0,1.0,48271.0,39.929591,-85.397363,31,1,0.03225806451612903
0500000US18067,18067.0,Howard,Indiana,IN,250.0,250.0,21.0,21.0,0.0,0.4148139666666665,0.0,10.0,3.0,82366.0,40.483537,-86.114118,75,4,0.05333333333333334
0500000US18069,18069.0,Huntington,Indiana,IN,36.0,36.0,6.0,6.0,0.0,0.3311263,0.0,2.0,1.0,36240.0,40.826394,-85.478597,7,2,0.2857142857142857
0500000US18071,18071.0,Jackson,Indiana,IN,91.0,91.0,7.0,7.0,0.0,0.2629836,0.0,6.0,1.0,44111.0,38.911957,-86.042516,98,0,0.0
0500000US18073,18073.0,Jasper,Indiana,IN,25.0,25.0,4.0,4.0,0.0,0.1740274,0.0,2.0,1.0,33370.0,41.017688,-87.118814,26,1,0.038461538461538464
0500000US18075,18075.0,Jay,Indiana,IN,25.0,25.0,4.0,4.0,0.0,0.2375163,0.0,2.0,1.0,20764.0,40.434956,-85.00233100000001,10,0,0.0
0500000US18077,18077.0,Jefferson,Indiana,IN,238.0,238.0,6.0,6.0,0.0,0.53383875,0.0,2.0,2.0,32208.0,38.783604,-85.44009,21,0,0.0
0500000US18079,18079.0,Jennings,Indiana,IN,25.0,25.0,4.0,4.0,0.0,0.07068493,0.0,1.0,1.0,27611.0,38.996229,-85.628103,64,1,0.015625
0500000US18081,18081.0,Johnson,Indiana,IN,195.0,195.0,6.0,6.0,0.0,0.4845916,0.0,2.0,3.0,156225.0,39.496092,-86.094264,456,40,0.08771929824561403
0500000US18083,18083.0,Knox,Indiana,IN,99.0,99.0,30.0,30.0,0.0,0.5575481,0.0,4.0,1.0,36895.0,38.688391,-87.420354,18,0,0.0
0500000US18085,18085.0,Kosciusko,Indiana,IN,88.0,88.0,14.0,14.0,0.0,0.47247910000000004,0.0,3.0,2.0,79344.0,41.244293,-85.861575,23,1,0.043478260869565216
0500000US18087,18087.0,LaGrange,Indiana,IN,25.0,25.0,4.0,4.0,0.0,0.331726,0.0,2.0,1.0,39330.0,41.642462,-85.42784499999998,18,1,0.05555555555555555
0500000US18089,18089.0,Lake,Indiana,IN,1767.0,1767.0,203.0,203.0,63.0,0.4805817,0.0,66.0,15.0,484411.0,41.472247,-87.374337,1292,57,0.04411764705882353
0500000US18091,18091.0,LaPorte,Indiana,IN,278.0,278.0,34.0,34.0,0.0,0.3563757,0.0,9.0,2.0,110007.0,41.549013,-86.744739,144,5,0.034722222222222224
0500000US18093,18093.0,Lawrence,Indiana,IN,50.0,50.0,11.0,11.0,0.0,0.32323290000000005,0.0,5.0,2.0,45668.0,38.839815,-86.48782,83,9,0.10843373493975904
0500000US18095,18095.0,Madison,Indiana,IN,303.0,303.0,42.0,42.0,0.0,0.359008,0.0,14.0,3.0,129641.0,40.166203,-85.722454,351,34,0.09686609686609686
0500000US18097,18097.0,Marion,Indiana,IN,3862.0,3862.0,467.0,467.0,244.0,0.5617877263157895,0.0,156.0,19.0,954670.0,39.782976,-86.13579399999998,4263,214,0.050199390100867936
0500000US18099,18099.0,Marshall,Indiana,IN,157.0,157.0,11.0,11.0,0.0,0.5184279275,0.0,4.0,4.0,46248.0,41.325003,-86.269036,26,1,0.038461538461538464
0500000US18103,18103.0,Miami,Indiana,IN,25.0,25.0,4.0,4.0,0.0,0.3315068,0.0,2.0,1.0,35567.0,40.772883,-86.044258,27,0,0.0
0500000US18105,18105.0,Monroe,Indiana,IN,357.0,357.0,24.0,24.0,18.0,0.5394796666666667,0.0,15.0,3.0,146917.0,39.160729,-86.52331,118,5,0.0423728813559322
0500000US18107,18107.0,Montgomery,Indiana,IN,29.0,29.0,5.0,5.0,0.0,0.2863486,0.0,2.0,1.0,38346.0,40.04029600000001,-86.892715,27,0,0.0
0500000US18109,18109.0,Morgan,Indiana,IN,83.0,83.0,10.0,10.0,0.0,0.2275623,0.0,3.0,1.0,70116.0,39.482646,-86.447457,124,4,0.03225806451612903
0500000US18113,18113.0,Noble,Indiana,IN,47.0,47.0,5.0,5.0,0.0,0.54025355,0.0,2.0,2.0,47532.0,41.404679,-85.417271,45,4,0.08888888888888889
0500000US18117,18117.0,Orange,Indiana,IN,24.0,24.0,4.0,4.0,0.0,0.08093607,0.0,2.0,1.0,19489.0,38.547381,-86.489257,38,4,0.10526315789473684
0500000US18123,18123.0,Perry,Indiana,IN,25.0,25.0,4.0,4.0,0.0,0.3263562,0.0,2.0,1.0,19102.0,38.081436,-86.62654,6,0,0.0
0500000US18127,18127.0,Porter,Indiana,IN,292.0,292.0,32.0,32.0,14.0,0.5400929,0.0,11.0,2.0,169594.0,41.509914,-87.071313,193,5,0.025906735751295335
0500000US18131,18131.0,Pulaski,Indiana,IN,25.0,25.0,4.0,4.0,0.0,0.35419179999999995,0.0,1.0,1.0,12469.0,41.045272,-86.692538,1,0,0.0
0500000US18133,18133.0,Putnam,Indiana,IN,25.0,25.0,6.0,6.0,0.0,0.2885479,0.0,2.0,1.0,37779.0,39.665548,-86.853373,53,4,0.07547169811320754
0500000US18135,18135.0,Randolph,Indiana,IN,25.0,25.0,4.0,4.0,0.0,0.1249315,0.0,2.0,1.0,24851.0,40.164079,-85.00579,12,2,0.16666666666666666
0500000US18137,18137.0,Ripley,Indiana,IN,25.0,25.0,7.0,7.0,0.0,0.5042192,0.0,3.0,1.0,28523.0,39.100226,-85.260494,89,3,0.033707865168539325
0500000US18139,18139.0,Rush,Indiana,IN,25.0,25.0,4.0,4.0,0.0,0.1471781,0.0,1.0,1.0,16663.0,39.622379,-85.46644599999998,22,1,0.045454545454545456
0500000US18141,18141.0,St. Joseph,Indiana,IN,837.0,837.0,111.0,111.0,42.0,0.4768375,0.0,29.0,5.0,270771.0,41.617723,-86.288048,454,10,0.022026431718061675
0500000US18143,18143.0,Scott,Indiana,IN,25.0,25.0,4.0,4.0,0.0,0.3185754,0.0,2.0,1.0,23878.0,38.679431,-85.751898,27,2,0.07407407407407407
0500000US18145,18145.0,Shelby,Indiana,IN,46.0,46.0,6.0,6.0,0.0,0.5916617,0.0,4.0,1.0,44593.0,39.524135,-85.792174,125,6,0.048
0500000US18149,18149.0,Starke,Indiana,IN,15.0,15.0,1.0,1.0,0.0,0.2241096,0.0,2.0,1.0,22935.0,41.284478,-86.644636,11,1,0.09090909090909091
0500000US18151,18151.0,Steuben,Indiana,IN,25.0,25.0,2.0,2.0,0.0,0.446137,0.0,2.0,1.0,34586.0,41.643467,-85.00240500000002,18,1,0.05555555555555555
0500000US18153,18153.0,Sullivan,Indiana,IN,25.0,25.0,4.0,4.0,0.0,0.26410959999999994,0.0,2.0,1.0,20690.0,39.089225,-87.41584300000002,10,0,0.0
0500000US18157,18157.0,Tippecanoe,Indiana,IN,477.0,477.0,35.0,35.0,31.0,0.59214164,0.0,25.0,5.0,193048.0,40.389133,-86.89355400000002,59,2,0.03389830508474576
0500000US18159,18159.0,Tipton,Indiana,IN,25.0,25.0,4.0,4.0,0.0,0.31364380000000003,0.0,2.0,1.0,15128.0,40.310229,-86.056207,14,1,0.07142857142857142
0500000US18163,18163.0,Vanderburgh,Indiana,IN,993.0,993.0,136.0,136.0,40.0,0.447902325,0.0,32.0,4.0,180974.0,38.02007,-87.586166,96,1,0.010416666666666666
0500000US18165,18165.0,Vermillion,Indiana,IN,25.0,25.0,6.0,6.0,0.0,0.203726,0.0,2.0,1.0,15479.0,39.854045,-87.462071,7,0,0.0
0500000US18167,18167.0,Vigo,Indiana,IN,494.0,494.0,54.0,54.0,15.0,0.627781375,0.0,12.0,4.0,107386.0,39.429143,-87.390375,60,5,0.08333333333333333
0500000US18169,18169.0,Wabash,Indiana,IN,18.0,18.0,3.0,3.0,0.0,0.3380715,0.0,2.0,1.0,31280.0,40.843747,-85.795192,10,1,0.1
0500000US18171,18171.0,Warren,Indiana,IN,16.0,16.0,4.0,4.0,0.0,0.3549657,0.0,2.0,1.0,8263.0,40.352658,-87.375847,7,1,0.14285714285714285
0500000US18173,18173.0,Warrick,Indiana,IN,338.0,338.0,75.0,75.0,0.0,0.4261774857142857,0.0,5.0,7.0,62567.0,38.097728,-87.272049,69,8,0.11594202898550725
0500000US18175,18175.0,Washington,Indiana,IN,25.0,25.0,4.0,4.0,0.0,0.05435617,0.0,2.0,1.0,27943.0,38.600613,-86.10475100000002,31,0,0.0
0500000US18177,18177.0,Wayne,Indiana,IN,376.0,376.0,30.0,30.0,0.0,0.71224935,0.0,6.0,2.0,65936.0,39.863091,-85.00673499999998,30,2,0.06666666666666667
0500000US18179,18179.0,Wells,Indiana,IN,62.0,62.0,7.0,7.0,0.0,0.1891295,0.0,2.0,1.0,28206.0,40.735273,-85.212974,6,0,0.0
0500000US18181,18181.0,White,Indiana,IN,25.0,25.0,4.0,4.0,0.0,0.2481096,0.0,2.0,1.0,24133.0,40.75095,-86.864293,11,0,0.0
0500000US18183,18183.0,Whitley,Indiana,IN,30.0,30.0,5.0,5.0,0.0,0.3936986,0.0,2.0,1.0,34074.0,41.136426,-85.501892,16,1,0.0625
0500000US19001,19001.0,Adair,Iowa,IA,25.0,25.0,4.0,4.0,0.0,0.04427397,0.0,0.0,1.0,7063.0,41.32852800000001,-94.478164,1,0,0.0
0500000US19005,19005.0,Allamakee,Iowa,IA,25.0,25.0,5.0,5.0,0.0,0.2638904,0.0,2.0,1.0,13832.0,43.274964,-91.382751,45,3,0.06666666666666667
0500000US19007,19007.0,Appanoose,Iowa,IA,45.0,25.0,3.0,3.0,0.0,0.1511233,20.0,2.0,1.0,12437.0,40.74429600000001,-92.873061,2,2,1.0
0500000US19009,19009.0,Audubon,Iowa,IA,25.0,25.0,4.0,4.0,0.0,0.07298629999999999,0.0,1.0,1.0,5506.0,41.679178,-94.904312,1,0,0.0
0500000US19011,19011.0,Benton,Iowa,IA,25.0,25.0,4.0,4.0,0.0,0.1820274,0.0,0.0,1.0,25642.0,42.092547,-92.05763,24,1,0.041666666666666664
0500000US19013,19013.0,Black Hawk,Iowa,IA,675.0,384.0,29.0,29.0,7.0,0.33773079999999994,291.0,9.0,3.0,132408.0,42.471132,-92.3076,379,2,0.005277044854881266
0500000US19015,19015.0,Boone,Iowa,IA,42.0,25.0,4.0,4.0,0.0,0.37468490000000004,17.0,2.0,1.0,26346.0,42.038642,-93.938358,6,0,0.0
0500000US19017,19017.0,Bremer,Iowa,IA,50.0,37.0,7.0,7.0,0.0,0.24346055,13.0,1.0,2.0,24947.0,42.780895,-92.327356,33,0,0.0
0500000US19019,19019.0,Buchanan,Iowa,IA,120.0,85.0,4.0,4.0,0.0,0.5309726,35.0,0.0,2.0,21199.0,42.470328,-91.838666,11,0,0.0
0500000US19021,19021.0,Buena Vista,Iowa,IA,35.0,25.0,4.0,4.0,0.0,0.2985205,10.0,2.0,1.0,19874.0,42.741522,-95.141432,2,0,0.0
0500000US19027,19027.0,Carroll,Iowa,IA,116.0,66.0,9.0,9.0,0.0,0.2425118,50.0,1.0,2.0,20154.0,42.039492,-94.867647,1,0,0.0
0500000US19029,19029.0,Cass,Iowa,IA,33.0,25.0,4.0,4.0,0.0,0.3525479,8.0,2.0,1.0,12930.0,41.333824,-94.933302,1,0,0.0
0500000US19033,19033.0,Cerro Gordo,Iowa,IA,346.0,205.0,18.0,18.0,0.0,0.5609755999999999,141.0,13.0,1.0,42647.0,43.074975,-93.250965,14,0,0.0
0500000US19035,19035.0,Cherokee,Iowa,IA,83.0,61.0,4.0,4.0,0.0,0.6565479999999999,22.0,1.0,2.0,11321.0,42.742737,-95.633262,1,0,0.0
0500000US19037,19037.0,Chickasaw,Iowa,IA,18.0,8.0,1.0,1.0,0.0,0.354452,10.0,0.0,1.0,11964.0,43.059741,-92.31721,3,0,0.0
0500000US19039,19039.0,Clarke,Iowa,IA,25.0,25.0,4.0,4.0,0.0,0.2803288,0.0,0.0,1.0,9423.0,41.029191,-93.784096,2,0,0.0
0500000US19041,19041.0,Clay,Iowa,IA,99.0,49.0,9.0,9.0,0.0,0.3618675,50.0,1.0,1.0,16134.0,43.081224,-95.149875,3,0,0.0
0500000US19043,19043.0,Clayton,Iowa,IA,50.0,40.0,7.0,7.0,0.0,0.16087669999999998,10.0,1.0,2.0,17556.0,42.840985,-91.323576,8,1,0.125
0500000US19045,19045.0,Clinton,Iowa,IA,265.0,120.0,12.0,12.0,0.0,0.26699525,145.0,5.0,2.0,46518.0,41.898073,-90.534243,44,0,0.0
0500000US19047,19047.0,Crawford,Iowa,IA,25.0,25.0,4.0,4.0,0.0,0.21216439999999998,0.0,2.0,1.0,17158.0,42.043119,-95.38909,6,1,0.16666666666666666
0500000US19049,19049.0,Dallas,Iowa,IA,25.0,25.0,4.0,4.0,0.0,0.08526027,0.0,0.0,1.0,90180.0,41.68532,-94.040706,59,0,0.0
0500000US19055,19055.0,Delaware,Iowa,IA,25.0,25.0,4.0,4.0,0.0,0.2609315,0.0,2.0,1.0,17069.0,42.472937,-91.366767,3,0,0.0
0500000US19057,19057.0,Des Moines,Iowa,IA,213.0,136.0,12.0,12.0,0.0,0.461946,77.0,3.0,1.0,39138.0,40.915339,-91.186925,14,0,0.0
0500000US19059,19059.0,Dickinson,Iowa,IA,49.0,44.0,8.0,8.0,0.0,0.1815691,5.0,2.0,1.0,17153.0,43.389611,-95.196057,3,0,0.0
0500000US19061,19061.0,Dubuque,Iowa,IA,470.0,257.0,21.0,21.0,0.0,0.36313284,213.0,8.0,3.0,96854.0,42.463481,-90.878771,49,1,0.02040816326530612
0500000US19065,19065.0,Fayette,Iowa,IA,50.0,50.0,8.0,8.0,0.0,0.13468494999999994,0.0,1.0,2.0,19660.0,42.864122,-91.840376,7,0,0.0
0500000US19069,19069.0,Franklin,Iowa,IA,25.0,25.0,4.0,4.0,0.0,0.15671229999999994,0.0,0.0,1.0,10124.0,42.736545,-93.271415,1,0,0.0
0500000US19073,19073.0,Greene,Iowa,IA,25.0,25.0,4.0,4.0,0.0,0.1878356,0.0,1.0,1.0,8981.0,42.042494,-94.388703,1,0,0.0
0500000US19075,19075.0,Grundy,Iowa,IA,80.0,25.0,4.0,4.0,0.0,0.09709589,55.0,0.0,1.0,12304.0,42.403339,-92.790244,6,0,0.0
0500000US19077,19077.0,Guthrie,Iowa,IA,25.0,25.0,4.0,4.0,0.0,0.16778079999999998,0.0,0.0,1.0,10720.0,41.683573,-94.501272,4,0,0.0
0500000US19079,19079.0,Hamilton,Iowa,IA,25.0,25.0,4.0,4.0,0.0,0.3277808,0.0,1.0,1.0,14952.0,42.390768,-93.709198,2,0,0.0
0500000US19081,19081.0,Hancock,Iowa,IA,25.0,25.0,4.0,4.0,0.0,0.2814247,0.0,0.0,1.0,10712.0,43.075411,-93.743697,3,0,0.0
0500000US19083,19083.0,Hardin,Iowa,IA,35.0,19.0,3.0,3.0,0.0,0.34980029999999995,16.0,2.0,1.0,16868.0,42.390208,-93.241669,4,0,0.0
0500000US19085,19085.0,Harrison,Iowa,IA,25.0,25.0,4.0,4.0,0.0,0.16591779999999998,0.0,2.0,1.0,14134.0,41.68858400000001,-95.827149,15,0,0.0
0500000US19087,19087.0,Henry,Iowa,IA,74.0,25.0,4.0,4.0,0.0,0.1800548,49.0,2.0,1.0,20067.0,40.984802,-91.547259,31,1,0.03225806451612903
0500000US19089,19089.0,Howard,Iowa,IA,19.0,18.0,3.0,3.0,0.0,0.1873668,1.0,2.0,1.0,9187.0,43.365312,-92.321908,4,0,0.0
0500000US19091,19091.0,Humboldt,Iowa,IA,49.0,17.0,3.0,3.0,0.0,0.2067687,32.0,0.0,1.0,9547.0,42.782221,-94.202775,2,0,0.0
0500000US19095,19095.0,Iowa,Iowa,IA,25.0,25.0,4.0,4.0,0.0,0.2749589000000001,0.0,0.0,1.0,16141.0,41.683918,-92.059123,13,0,0.0
0500000US19097,19097.0,Jackson,Iowa,IA,25.0,25.0,4.0,4.0,0.0,0.194411,0.0,0.0,1.0,19432.0,42.164226,-90.574582,5,0,0.0
0500000US19099,19099.0,Jasper,Iowa,IA,68.0,48.0,8.0,8.0,0.0,0.16506849999999998,20.0,2.0,1.0,37147.0,41.685551,-93.054147,53,0,0.0
0500000US19101,19101.0,Jefferson,Iowa,IA,25.0,25.0,4.0,4.0,0.0,0.3774247000000001,0.0,1.0,1.0,18381.0,41.005888,-91.966634,7,0,0.0
0500000US19103,19103.0,Johnson,Iowa,IA,1383.0,962.0,77.0,77.0,116.0,0.258088325,421.0,27.0,4.0,151260.0,41.670668,-91.590529,396,3,0.007575757575757576
0500000US19105,19105.0,Jones,Iowa,IA,22.0,22.0,4.0,4.0,0.0,0.2290162000000001,0.0,2.0,1.0,20744.0,42.125118,-91.116914,17,0,0.0
0500000US19107,19107.0,Keokuk,Iowa,IA,25.0,25.0,4.0,4.0,0.0,0.20065750000000002,0.0,0.0,1.0,10225.0,41.331182,-92.167721,4,0,0.0
0500000US19109,19109.0,Kossuth,Iowa,IA,25.0,24.0,4.0,4.0,0.0,0.4009132,1.0,2.0,1.0,14908.0,43.212478,-94.213983,1,0,0.0
0500000US19111,19111.0,Lee,Iowa,IA,121.0,99.0,12.0,12.0,0.0,0.127367235,22.0,4.0,2.0,34055.0,40.647588,-91.477157,3,0,0.0
0500000US19113,19113.0,Linn,Iowa,IA,994.0,495.0,36.0,36.0,32.0,0.5074873999999999,499.0,10.0,2.0,225909.0,42.077951,-91.597674,469,29,0.06183368869936034
0500000US19119,19119.0,Lyon,Iowa,IA,25.0,11.0,2.0,2.0,0.0,0.1113095,14.0,0.0,1.0,11811.0,43.38358,-96.207201,5,0,0.0
0500000US19121,19121.0,Madison,Iowa,IA,25.0,25.0,4.0,4.0,0.0,0.1727123,0.0,0.0,1.0,16249.0,41.330622,-94.015184,4,1,0.25
0500000US19123,19123.0,Mahaska,Iowa,IA,33.0,25.0,4.0,4.0,0.0,0.4187397,8.0,2.0,1.0,22000.0,41.330797,-92.636366,8,1,0.125
0500000US19125,19125.0,Marion,Iowa,IA,50.0,50.0,7.0,7.0,0.0,0.3752877,0.0,3.0,2.0,33407.0,41.331455,-93.093849,5,0,0.0
0500000US19127,19127.0,Marshall,Iowa,IA,125.0,41.0,7.0,7.0,0.0,0.3048227000000001,84.0,2.0,1.0,39981.0,42.041691,-92.981452,239,0,0.0
0500000US19131,19131.0,Mitchell,Iowa,IA,25.0,25.0,4.0,4.0,0.0,0.18147950000000002,0.0,0.0,1.0,10569.0,43.348564,-92.784466,2,0,0.0
0500000US19133,19133.0,Monona,Iowa,IA,25.0,25.0,4.0,4.0,0.0,0.2683836,0.0,2.0,1.0,8679.0,42.049432,-95.956566,7,0,0.0
0500000US19137,19137.0,Montgomery,Iowa,IA,25.0,25.0,8.0,8.0,0.0,0.4652055000000001,0.0,1.0,1.0,10003.0,41.021735,-95.15779,1,0,0.0
0500000US19139,19139.0,Muscatine,Iowa,IA,48.0,45.0,5.0,5.0,0.0,0.22313550000000001,3.0,2.0,1.0,42929.0,41.483776,-91.118699,240,6,0.025
0500000US19141,19141.0,O'Brien,Iowa,IA,39.0,39.0,6.0,6.0,0.0,0.212772655,0.0,1.0,2.0,13840.0,43.08374600000001,-95.625624,3,0,0.0
0500000US19143,19143.0,Osceola,Iowa,IA,25.0,25.0,4.0,4.0,0.0,0.11463010000000001,0.0,1.0,1.0,6040.0,43.378542,-95.633788,4,0,0.0
0500000US19145,19145.0,Page,Iowa,IA,50.0,50.0,6.0,6.0,0.0,0.1961096,0.0,4.0,2.0,15249.0,40.73909,-95.14429,4,0,0.0
0500000US19149,19149.0,Plymouth,Iowa,IA,25.0,25.0,4.0,4.0,0.0,0.2267397,0.0,2.0,1.0,25095.0,42.737585,-96.215864,9,0,0.0
0500000US19153,19153.0,Polk,Iowa,IA,1671.0,1520.0,110.0,110.0,91.0,0.5413625571428572,151.0,48.0,7.0,487204.0,41.684816,-93.568971,441,23,0.05215419501133787
0500000US19155,19155.0,Pottawattamie,Iowa,IA,514.0,255.0,29.0,29.0,0.0,0.46999915,259.0,7.0,2.0,93533.0,41.340184,-95.544905,18,1,0.05555555555555555
0500000US19157,19157.0,Poweshiek,Iowa,IA,49.0,49.0,5.0,5.0,0.0,0.23421860000000005,0.0,2.0,1.0,18699.0,41.684526,-92.522882,14,1,0.07142857142857142
0500000US19163,19163.0,Scott,Iowa,IA,691.0,432.0,47.0,47.0,6.0,0.4626391666666666,259.0,12.0,3.0,173283.0,41.642079,-90.622289,183,3,0.01639344262295082
0500000US19165,19165.0,Shelby,Iowa,IA,25.0,25.0,4.0,4.0,0.0,0.3596712,0.0,2.0,1.0,11578.0,41.679014,-95.308917,9,0,0.0
0500000US19167,19167.0,Sioux,Iowa,IA,96.0,94.0,15.0,15.0,0.0,0.219813975,2.0,2.0,4.0,34909.0,43.082646,-96.17801,7,0,0.0
0500000US19169,19169.0,Story,Iowa,IA,237.0,175.0,17.0,17.0,0.0,0.4344755499999999,62.0,3.0,2.0,98105.0,42.037538,-93.466093,20,0,0.0
0500000US19175,19175.0,Union,Iowa,IA,25.0,25.0,4.0,4.0,0.0,0.3757808,0.0,2.0,1.0,12359.0,41.02855,-94.245091,1,0,0.0
0500000US19177,19177.0,Van Buren,Iowa,IA,25.0,25.0,4.0,4.0,0.0,0.08909589,0.0,1.0,1.0,7020.0,40.754117,-91.952943,8,0,0.0
0500000US19179,19179.0,Wapello,Iowa,IA,217.0,88.0,11.0,11.0,0.0,0.22204229999999997,129.0,2.0,1.0,35205.0,41.031275,-92.409466,7,0,0.0
0500000US19183,19183.0,Washington,Iowa,IA,25.0,25.0,4.0,4.0,0.0,0.2903014,0.0,1.0,1.0,22141.0,41.329401,-91.725052,126,5,0.03968253968253968
0500000US19187,19187.0,Webster,Iowa,IA,200.0,46.0,8.0,8.0,0.0,0.6789755999999999,154.0,2.0,1.0,36277.0,42.433579,-94.175831,4,0,0.0
0500000US19191,19191.0,Winneshiek,Iowa,IA,25.0,25.0,4.0,4.0,0.0,0.3639452,0.0,2.0,1.0,20029.0,43.292989,-91.850788,8,0,0.0
0500000US19193,19193.0,Woodbury,Iowa,IA,830.0,316.0,34.0,34.0,20.0,0.65030875,514.0,11.0,2.0,102539.0,42.39322,-96.053296,100,1,0.01
0500000US19197,19197.0,Wright,Iowa,IA,47.0,47.0,8.0,8.0,0.0,0.24147945,0.0,3.0,2.0,12690.0,42.733007,-93.734735,2,0,0.0
0500000US20003,20003.0,Anderson,Kansas,KS,12.0,12.0,2.0,2.0,0.0,0.389726,0.0,0.0,1.0,7878.0,38.215114,-95.292046,1,0,0.0
0500000US20005,20005.0,Atchison,Kansas,KS,25.0,25.0,4.0,4.0,0.0,0.390137,0.0,2.0,1.0,16193.0,39.532544,-95.313397,6,0,0.0
0500000US20007,20007.0,Barber,Kansas,KS,35.0,32.0,6.0,6.0,0.0,0.54278955,3.0,0.0,2.0,4472.0,37.222906,-98.685052,1,0,0.0
0500000US20009,20009.0,Barton,Kansas,KS,81.0,76.0,11.0,11.0,0.0,0.33742446666666664,5.0,2.0,3.0,26111.0,38.481239,-98.767837,8,0,0.0
0500000US20015,20015.0,Butler,Kansas,KS,126.0,108.0,16.0,16.0,0.0,0.40862625,18.0,5.0,2.0,66765.0,37.773649,-96.83884,13,0,0.0
0500000US20019,20019.0,Chautauqua,Kansas,KS,25.0,17.0,3.0,3.0,0.0,0.09863014,8.0,0.0,1.0,3309.0,37.154259,-96.245396,3,0,0.0
0500000US20021,20021.0,Cherokee,Kansas,KS,61.0,46.0,8.0,8.0,0.0,0.1835388,15.0,0.0,2.0,20015.0,37.169392,-94.845698,7,0,0.0
0500000US20027,20027.0,Clay,Kansas,KS,25.0,17.0,3.0,3.0,0.0,0.6315874,8.0,0.0,1.0,7997.0,39.344964,-97.168853,3,0,0.0
0500000US20029,20029.0,Cloud,Kansas,KS,25.0,22.0,4.0,4.0,0.0,0.21307600000000002,3.0,1.0,1.0,8729.0,39.487329,-97.64139,3,0,0.0
0500000US20031,20031.0,Coffey,Kansas,KS,25.0,25.0,4.0,4.0,0.0,0.1833425,0.0,2.0,1.0,8233.0,38.23645,-95.729137,47,6,0.1276595744680851
0500000US20035,20035.0,Cowley,Kansas,KS,74.0,53.0,4.0,4.0,0.0,0.37709355,21.0,4.0,2.0,35218.0,37.234507,-96.837247,2,1,0.5
0500000US20037,20037.0,Crawford,Kansas,KS,100.0,89.0,16.0,16.0,0.0,0.257493,11.0,4.0,2.0,39019.0,37.50582100000001,-94.853897,6,1,0.16666666666666666
0500000US20041,20041.0,Dickinson,Kansas,KS,50.0,34.0,6.0,6.0,0.0,0.3714636,16.0,1.0,2.0,18717.0,38.867735,-97.157943,1,0,0.0
0500000US20045,20045.0,Douglas,Kansas,KS,148.0,110.0,10.0,10.0,0.0,0.4569614000000001,38.0,3.0,1.0,121436.0,38.896417,-95.290947,43,0,0.0
0500000US20047,20047.0,Edwards,Kansas,KS,12.0,12.0,2.0,2.0,0.0,0.4445205,0.0,0.0,1.0,2849.0,37.883595,-99.304746,1,0,0.0
0500000US20051,20051.0,Ellis,Kansas,KS,194.0,149.0,34.0,34.0,0.0,0.3701572,45.0,8.0,1.0,28710.0,38.914597,-99.317313,8,0,0.0
0500000US20055,20055.0,Finney,Kansas,KS,100.0,90.0,8.0,8.0,7.0,0.4137291,10.0,2.0,1.0,36611.0,38.049808,-100.739967,56,1,0.017857142857142856
0500000US20057,20057.0,Ford,Kansas,KS,99.0,60.0,10.0,10.0,0.0,0.18863010000000002,39.0,2.0,1.0,33888.0,37.688416,-99.884748,209,0,0.0
0500000US20059,20059.0,Franklin,Kansas,KS,44.0,44.0,5.0,5.0,0.0,0.2388298,0.0,2.0,1.0,25631.0,38.558019,-95.278962,12,0,0.0
0500000US20061,20061.0,Geary,Kansas,KS,139.0,96.0,6.0,6.0,0.0,0.0802069,43.0,2.0,2.0,32594.0,39.002139,-96.7681,10,0,0.0
0500000US20063,20063.0,Gove,Kansas,KS,21.0,21.0,4.0,4.0,0.0,0.23692110000000002,0.0,0.0,1.0,2612.0,38.917239,-100.48736,1,0,0.0
0500000US20073,20073.0,Greenwood,Kansas,KS,25.0,25.0,4.0,4.0,0.0,0.2947945,0.0,0.0,1.0,6055.0,37.879347,-96.241732,2,0,0.0
0500000US20075,20075.0,Hamilton,Kansas,KS,25.0,25.0,4.0,4.0,0.0,0.23101370000000002,0.0,0.0,1.0,2607.0,37.995244,-101.793689,1,0,0.0
0500000US20079,20079.0,Harvey,Kansas,KS,163.0,134.0,6.0,6.0,0.0,0.24717945,29.0,3.0,2.0,34210.0,38.050144,-97.436706,5,0,0.0
0500000US20081,20081.0,Haskell,Kansas,KS,13.0,13.0,2.0,2.0,0.0,0.17892519999999998,0.0,0.0,1.0,3997.0,37.554979,-100.879952,1,0,0.0
0500000US20085,20085.0,Jackson,Kansas,KS,12.0,12.0,2.0,2.0,0.0,0.3210046,0.0,0.0,1.0,13280.0,39.411145,-95.794485,1,0,0.0
0500000US20087,20087.0,Jefferson,Kansas,KS,25.0,25.0,4.0,4.0,0.0,0.08438356,0.0,0.0,1.0,18975.0,39.239644,-95.375314,6,0,0.0
0500000US20089,20089.0,Jewell,Kansas,KS,25.0,24.0,4.0,4.0,0.0,0.7606164000000001,1.0,0.0,1.0,2841.0,39.777002,-98.222618,4,0,0.0
0500000US20091,20091.0,Johnson,Kansas,KS,1955.0,1519.0,262.0,262.0,105.0,0.30297093625,436.0,23.0,24.0,597555.0,38.883907,-94.82233,396,36,0.09090909090909091
0500000US20093,20093.0,Kearny,Kansas,KS,25.0,25.0,4.0,4.0,0.0,0.21994520000000006,0.0,1.0,1.0,3943.0,37.994461,-101.308136,4,0,0.0
0500000US20099,20099.0,Labette,Kansas,KS,99.0,46.0,5.0,5.0,0.0,0.3201357,53.0,2.0,1.0,19964.0,37.191468,-95.297473,20,0,0.0
0500000US20103,20103.0,Leavenworth,Kansas,KS,100.0,46.0,10.0,10.0,0.0,0.2816244666666667,54.0,4.0,3.0,81352.0,39.189511,-95.038977,150,3,0.02
0500000US20111,20111.0,Lyon,Kansas,KS,25.0,21.0,6.0,6.0,0.0,0.8581865,4.0,2.0,1.0,33406.0,38.455403,-96.161641,110,1,0.00909090909090909
0500000US20113,20113.0,McPherson,Kansas,KS,95.0,81.0,15.0,15.0,0.0,0.19721043333333327,14.0,2.0,3.0,28537.0,38.395812,-97.647489,19,0,0.0
0500000US20115,20115.0,Marion,Kansas,KS,25.0,25.0,5.0,5.0,0.0,0.2413699,0.0,1.0,2.0,11950.0,38.359647,-97.102771,5,0,0.0
0500000US20121,20121.0,Miami,Kansas,KS,245.0,104.0,109.0,109.0,0.0,0.50362345,141.0,1.0,2.0,33680.0,38.566772,-94.832963,5,0,0.0
0500000US20123,20123.0,Mitchell,Kansas,KS,25.0,16.0,4.0,4.0,0.0,1.0,9.0,0.0,1.0,6150.0,39.393026,-98.207362,3,0,0.0
0500000US20125,20125.0,Montgomery,Kansas,KS,47.0,47.0,7.0,7.0,0.0,0.2274556,0.0,2.0,1.0,32120.0,37.189537,-95.742403,14,2,0.14285714285714285
0500000US20127,20127.0,Morris,Kansas,KS,25.0,25.0,4.0,4.0,0.0,0.1475068,0.0,1.0,1.0,5521.0,38.688204,-96.651448,2,0,0.0
0500000US20129,20129.0,Morton,Kansas,KS,28.0,26.0,5.0,5.0,0.0,0.08756586,2.0,2.0,1.0,2667.0,37.185249,-101.809516,2,0,0.0
0500000US20133,20133.0,Neosho,Kansas,KS,25.0,22.0,5.0,5.0,0.0,0.6636364,3.0,2.0,1.0,15951.0,37.564283,-95.315682,2,0,0.0
0500000US20141,20141.0,Osborne,Kansas,KS,25.0,24.0,4.0,4.0,0.0,0.15890410000000002,1.0,0.0,1.0,3475.0,39.348261,-98.767942,2,0,0.0
0500000US20143,20143.0,Ottawa,Kansas,KS,25.0,25.0,4.0,4.0,0.0,0.5128767,0.0,0.0,1.0,5802.0,39.137963,-97.654802,3,0,0.0
0500000US20147,20147.0,Phillips,Kansas,KS,25.0,25.0,4.0,4.0,0.0,0.28,0.0,0.0,1.0,5317.0,39.784506,-99.34215,1,0,0.0
0500000US20149,20149.0,Pottawatomie,Kansas,KS,50.0,43.0,7.0,7.0,0.0,0.26821245,7.0,3.0,2.0,24277.0,39.382187,-96.337113,6,0,0.0
0500000US20151,20151.0,Pratt,Kansas,KS,35.0,35.0,6.0,6.0,0.0,0.3513111,0.0,2.0,1.0,9378.0,37.647594,-98.74012,1,0,0.0
0500000US20155,20155.0,Reno,Kansas,KS,200.0,137.0,20.0,20.0,0.0,0.23169775,63.0,5.0,2.0,62342.0,37.948185,-98.078346,15,0,0.0
0500000US20157,20157.0,Republic,Kansas,KS,25.0,25.0,4.0,4.0,0.0,0.6440547999999999,0.0,2.0,1.0,4664.0,39.828906,-97.650883,4,0,0.0
0500000US20161,20161.0,Riley,Kansas,KS,163.0,99.0,10.0,10.0,0.0,0.3217279000000001,64.0,2.0,2.0,73703.0,39.291211,-96.727489,31,0,0.0
0500000US20163,20163.0,Rooks,Kansas,KS,20.0,16.0,3.0,3.0,0.0,0.3375,4.0,1.0,1.0,5013.0,39.346006,-99.324492,4,0,0.0
0500000US20169,20169.0,Saline,Kansas,KS,392.0,191.0,21.0,21.0,14.0,0.4342408999999999,201.0,4.0,2.0,54401.0,38.791804,-97.651478,17,2,0.11764705882352941
0500000US20171,20171.0,Scott,Kansas,KS,25.0,25.0,4.0,4.0,0.0,0.4046027,0.0,1.0,1.0,4897.0,38.481877,-100.90636,2,0,0.0
0500000US20173,20173.0,Sedgwick,Kansas,KS,2837.0,1726.0,214.0,214.0,67.0,0.3590076642857142,1111.0,42.0,14.0,513607.0,37.68104500000001,-97.461054,265,5,0.018867924528301886
0500000US20175,20175.0,Seward,Kansas,KS,69.0,71.0,8.0,8.0,0.0,0.2837739,-2.0,2.0,1.0,21780.0,37.18096,-100.855257,142,0,0.0
0500000US20177,20177.0,Shawnee,Kansas,KS,1067.0,748.0,45.0,45.0,40.0,0.41896026,319.0,17.0,5.0,177499.0,39.041805,-95.755664,95,5,0.05263157894736842
0500000US20179,20179.0,Sheridan,Kansas,KS,18.0,18.0,3.0,3.0,0.0,0.2292237,0.0,0.0,1.0,2533.0,39.350547,-100.441228,1,0,0.0
0500000US20181,20181.0,Sherman,Kansas,KS,25.0,21.0,4.0,4.0,0.0,0.24027670000000004,4.0,1.0,1.0,5899.0,39.351352,-101.719859,1,0,0.0
0500000US20183,20183.0,Smith,Kansas,KS,25.0,16.0,3.0,3.0,0.0,0.3255137,9.0,0.0,1.0,3603.0,39.78466,-98.785429,2,0,0.0
0500000US20185,20185.0,Stafford,Kansas,KS,25.0,25.0,4.0,4.0,0.0,0.1970411,0.0,0.0,1.0,4178.0,38.03563,-98.719889,1,0,0.0
0500000US20187,20187.0,Stanton,Kansas,KS,18.0,16.0,3.0,3.0,0.0,0.1443493,2.0,0.0,1.0,1987.0,37.565932,-101.789383,3,0,0.0
0500000US20189,20189.0,Stevens,Kansas,KS,25.0,17.0,3.0,3.0,0.0,0.19435940000000002,8.0,0.0,1.0,5559.0,37.2017,-101.317268,4,0,0.0
0500000US20191,20191.0,Sumner,Kansas,KS,25.0,25.0,4.0,4.0,0.0,0.31649320000000003,0.0,0.0,1.0,22996.0,37.236662,-97.493352,3,1,0.3333333333333333
0500000US20205,20205.0,Wilson,Kansas,KS,40.0,40.0,7.0,7.0,0.0,0.30158905,0.0,2.0,2.0,8665.0,37.558515,-95.745175,1,0,0.0
